[
   {
      "id"  : 0,
      "lat" : 46.139189,
      "lon" : 13.613414,
      "tags" : {
               "name" : "Polizza",
               "ref" : 1,
               "emergency" : "assembly_point",
               "assembly_point:earthquake" : "yes"
               }
    }
,
   {
      "id"  : 1,
      "lat" : 46.141536,
      "lon" : 13.617178,
      "tags" : {
               "name" : "Fermata Autobus Tribil Superiore",
               "ref" : 2,
               "emergency" : "assembly_point",
               "assembly_point:earthquake" : "yes"
               }
    }
,
   {
      "id"  : 2,
      "lat" : 46.126922,
      "lon" : 13.577836,
      "tags" : {
               "name" : "Piazzale Municipio",
               "ref" : 3,
               "emergency" : "assembly_point",
               "assembly_point:earthquake" : "yes"
               }
    }
,
   {
      "id"  : 3,
      "lat" : 46.126236,
      "lon" : 13.569236,
      "tags" : {
               "name" : "Parcheggio Postregna",
               "ref" : 4,
               "emergency" : "assembly_point",
               "assembly_point:earthquake" : "yes"
               }
    }
,
   {
      "id"  : 4,
      "lat" : 46.1258,
      "lon" : 13.563361,
      "tags" : {
               "name" : "Piazzale Zamir",
               "ref" : 5,
               "emergency" : "assembly_point",
               "assembly_point:earthquake" : "yes"
               }
    }
,
   {
      "id"  : 5,
      "lat" : 46.140222,
      "lon" : 13.578706,
      "tags" : {
               "name" : "Parcheggio Raune",
               "ref" : 6,
               "emergency" : "assembly_point",
               "assembly_point:earthquake" : "yes"
               }
    }
,
   {
      "id"  : 6,
      "lat" : 46.137517,
      "lon" : 13.591769,
      "tags" : {
               "name" : "Parcheggio Oblizza",
               "ref" : 7,
               "emergency" : "assembly_point",
               "assembly_point:earthquake" : "yes"
               }
    }
,
   {
      "id"  : 7,
      "lat" : 46.142,
      "lon" : 13.603861,
      "tags" : {
               "name" : "Piazzale Dughe",
               "ref" : 8,
               "emergency" : "assembly_point",
               "assembly_point:earthquake" : "yes"
               }
    }
,
   {
      "id"  : 8,
      "lat" : 46.134419,
      "lon" : 13.6154,
      "tags" : {
               "name" : "Ingresso frazione di Gnidovizza",
               "ref" : 9,
               "emergency" : "assembly_point",
               "assembly_point:earthquake" : "yes"
               }
    }
,
   {
      "id"  : 9,
      "lat" : 46.12665,
      "lon" : 13.613019,
      "tags" : {
               "name" : "Slargo frazione Clinaz",
               "ref" : 10,
               "emergency" : "assembly_point",
               "assembly_point:earthquake" : "yes"
               }
    }
,
   {
      "id"  : 10,
      "lat" : 46.122742,
      "lon" : 13.602064,
      "tags" : {
               "name" : "Fermata autobus frazione Varch",
               "ref" : 11,
               "emergency" : "assembly_point",
               "assembly_point:earthquake" : "yes"
               }
    }
,
   {
      "id"  : 11,
      "lat" : 46.120061,
      "lon" : 13.584908,
      "tags" : {
               "name" : "Fermata autobus frazione Tribil Inferiore",
               "ref" : 12,
               "emergency" : "assembly_point",
               "assembly_point:earthquake" : "yes"
               }
    }
,
   {
      "id"  : 12,
      "lat" : 46.125958,
      "lon" : 13.596383,
      "tags" : {
               "name" : "Piazzale Presserie",
               "ref" : 13,
               "emergency" : "assembly_point",
               "assembly_point:earthquake" : "yes"
               }
    }
,
   {
      "id"  : 13,
      "lat" : 46.127503,
      "lon" : 13.588153,
      "tags" : {
               "name" : "Ingresso frazione di Cernetig",
               "ref" : 14,
               "emergency" : "assembly_point",
               "assembly_point:earthquake" : "yes"
               }
    }
,
   {
      "id"  : 14,
      "lat" : 46.134067,
      "lon" : 13.585483,
      "tags" : {
               "name" : "Ingresso frazione di Podgora",
               "ref" : 15,
               "emergency" : "assembly_point",
               "assembly_point:earthquake" : "yes"
               }
    }
,
   {
      "id"  : 15,
      "lat" : 46.114261,
      "lon" : 13.603867,
      "tags" : {
               "name" : "Frazione Melina",
               "ref" : 17,
               "emergency" : "assembly_point",
               "assembly_point:earthquake" : "yes"
               }
    }
,
   {
      "id"  : 16,
      "lat" : 45.815864,
      "lon" : 13.127844,
      "tags" : {
               "name" : "Parcheggio via Visinale",
               "ref" : 4,
               "emergency" : "assembly_point",
               "assembly_point:earthquake" : "yes"
               }
    }
,
   {
      "id"  : 17,
      "lat" : 45.821303,
      "lon" : 13.126719,
      "tags" : {
               "name" : "Parcheggio via Pruan",
               "ref" : 5,
               "emergency" : "assembly_point",
               "assembly_point:earthquake" : "yes"
               }
    }
,
   {
      "id"  : 18,
      "lat" : 45.815283,
      "lon" : 13.125672,
      "tags" : {
               "name" : "Parcheggio sottopasso via Maggiore",
               "ref" : 6,
               "emergency" : "assembly_point",
               "assembly_point:earthquake" : "yes"
               }
    }
,
   {
      "id"  : 19,
      "lat" : 45.818647,
      "lon" : 13.129211,
      "tags" : {
               "name" : "Parcheggio antistante Hotel Turgnano",
               "ref" : 7,
               "emergency" : "assembly_point",
               "assembly_point:earthquake" : "yes"
               }
    }
,
   {
      "id"  : 20,
      "lat" : 45.819242,
      "lon" : 13.125433,
      "tags" : {
               "name" : "Via Erica",
               "ref" : 8,
               "emergency" : "assembly_point",
               "assembly_point:earthquake" : "yes"
               }
    }
,
   {
      "id"  : 21,
      "lat" : 45.843619,
      "lon" : 13.153094,
      "tags" : {
               "name" : "Parcheggio fermata scuolabus via Case Nuove",
               "ref" : 9,
               "emergency" : "assembly_point",
               "assembly_point:earthquake" : "yes"
               }
    }
,
   {
      "id"  : 22,
      "lat" : 45.817544,
      "lon" : 13.133822,
      "tags" : {
               "name" : "Area antistante il Cimitero",
               "ref" : 10,
               "emergency" : "assembly_point",
               "assembly_point:earthquake" : "yes"
               }
    }
,
   {
      "id"  : 23,
      "lat" : 45.81705,
      "lon" : 13.127042,
      "tags" : {
               "name" : "Parcheggio Piazza Luigi Sbaiz",
               "ref" : 11,
               "emergency" : "assembly_point",
               "assembly_point:earthquake" : "yes"
               }
    }
,
   {
      "id"  : 24,
      "lat" : 45.813286,
      "lon" : 13.127189,
      "tags" : {
               "name" : "Parcheggio Via Levada",
               "ref" : 12,
               "emergency" : "assembly_point",
               "assembly_point:earthquake" : "yes"
               }
    }
,
   {
      "id"  : 25,
      "lat" : 45.813006,
      "lon" : 13.125494,
      "tags" : {
               "name" : "Parcheggio Via Baroso",
               "ref" : 13,
               "emergency" : "assembly_point",
               "assembly_point:earthquake" : "yes"
               }
    }
,
   {
      "id"  : 26,
      "lat" : 45.815706,
      "lon" : 13.121019,
      "tags" : {
               "name" : "Parcheggio Banca Credito Cooperativo Via Palazzolo",
               "ref" : 14,
               "emergency" : "assembly_point",
               "assembly_point:earthquake" : "yes"
               }
    }
,
   {
      "id"  : 27,
      "lat" : 45.824297,
      "lon" : 13.133519,
      "tags" : {
               "name" : "Incrocio via Selvotta/via Viri",
               "ref" : 15,
               "emergency" : "assembly_point",
               "assembly_point:earthquake" : "yes"
               }
    }
,
   {
      "id"  : 28,
      "lat" : 45.932067,
      "lon" : 13.230481,
      "tags" : {
               "name" : "Campo sportivo di Gris Cuccana",
               "ref" : 1,
               "emergency" : "assembly_point",
               "assembly_point:earthquake" : "yes"
               }
    }
,
   {
      "id"  : 29,
      "lat" : 45.914583,
      "lon" : 13.259056,
      "tags" : {
               "name" : "Campo sportivo di Felettis",
               "ref" : 2,
               "emergency" : "assembly_point",
               "assembly_point:earthquake" : "yes"
               }
    }
,
   {
      "id"  : 30,
      "lat" : 45.934269,
      "lon" : 13.252639,
      "tags" : {
               "name" : "parcheggio incrocio Via Roma - Via Regina Pacis a Bicinicco",
               "ref" : 3,
               "emergency" : "assembly_point",
               "assembly_point:earthquake" : "yes"
               }
    }
,
   {
      "id"  : 31,
      "lat" : 46.157722,
      "lon" : 13.531558,
      "tags" : {
               "name" : "Piazzale parcheggio attiguo alla pesa pubblica",
               "ref" : 2,
               "emergency" : "assembly_point",
               "assembly_point:earthquake" : "yes"
               }
    }
,
   {
      "id"  : 32,
      "lat" : 46.162772,
      "lon" : 13.537836,
      "tags" : {
               "name" : "Area di attesa località Stefenigh",
               "ref" : 3,
               "emergency" : "assembly_point",
               "assembly_point:earthquake" : "yes"
               }
    }
,
   {
      "id"  : 33,
      "lat" : 46.176669,
      "lon" : 13.537636,
      "tags" : {
               "name" : "Area di attesa località Ieronizza",
               "ref" : 4,
               "emergency" : "assembly_point",
               "assembly_point:earthquake" : "yes"
               }
    }
,
   {
      "id"  : 34,
      "lat" : 46.179181,
      "lon" : 13.550364,
      "tags" : {
               "name" : "Area di attesa di Iellina",
               "ref" : 5,
               "emergency" : "assembly_point",
               "assembly_point:earthquake" : "yes"
               }
    }
,
   {
      "id"  : 35,
      "lat" : 46.180036,
      "lon" : 13.544356,
      "tags" : {
               "name" : "Area di attesa di Dus",
               "ref" : 6,
               "emergency" : "assembly_point",
               "assembly_point:earthquake" : "yes"
               }
    }
,
   {
      "id"  : 36,
      "lat" : 46.182858,
      "lon" : 13.551997,
      "tags" : {
               "name" : "Area di attesa di Masseris",
               "ref" : 7,
               "emergency" : "assembly_point",
               "assembly_point:earthquake" : "yes"
               }
    }
,
   {
      "id"  : 37,
      "lat" : 46.191789,
      "lon" : 13.545619,
      "tags" : {
               "name" : "Area attesa località Losaz",
               "ref" : 8,
               "emergency" : "assembly_point",
               "assembly_point:earthquake" : "yes"
               }
    }
,
   {
      "id"  : 38,
      "lat" : 46.194964,
      "lon" : 13.530664,
      "tags" : {
               "name" : "Area attesa località Montemaggiore",
               "ref" : 9,
               "emergency" : "assembly_point",
               "assembly_point:earthquake" : "yes"
               }
    }
,
   {
      "id"  : 39,
      "lat" : 46.191097,
      "lon" : 13.525931,
      "tags" : {
               "name" : "Area attesa località Barza",
               "ref" : 10,
               "emergency" : "assembly_point",
               "assembly_point:earthquake" : "yes"
               }
    }
,
   {
      "id"  : 40,
      "lat" : 46.186372,
      "lon" : 13.533031,
      "tags" : {
               "name" : "Area attesa località Stermizza",
               "ref" : 11,
               "emergency" : "assembly_point",
               "assembly_point:earthquake" : "yes"
               }
    }
,
   {
      "id"  : 41,
      "lat" : 46.179833,
      "lon" : 13.525317,
      "tags" : {
               "name" : "Area attesa località Pechinie di sopra",
               "ref" : 12,
               "emergency" : "assembly_point",
               "assembly_point:earthquake" : "yes"
               }
    }
,
   {
      "id"  : 42,
      "lat" : 46.180839,
      "lon" : 13.527569,
      "tags" : {
               "name" : "Area attesa Pechinie di sotto",
               "ref" : 13,
               "emergency" : "assembly_point",
               "assembly_point:earthquake" : "yes"
               }
    }
,
   {
      "id"  : 43,
      "lat" : 46.17325,
      "lon" : 13.549533,
      "tags" : {
               "name" : "Area di attesa di Tercimonte",
               "ref" : 14,
               "emergency" : "assembly_point",
               "assembly_point:earthquake" : "yes"
               }
    }
,
   {
      "id"  : 44,
      "lat" : 46.178336,
      "lon" : 13.571514,
      "tags" : {
               "name" : "Area di attesa località Cepletischis e Polava",
               "ref" : 15,
               "emergency" : "assembly_point",
               "assembly_point:earthquake" : "yes"
               }
    }
,
   {
      "id"  : 45,
      "lat" : 46.175017,
      "lon" : 13.564478,
      "tags" : {
               "name" : "Area attesa località Gabrovizza",
               "ref" : 16,
               "emergency" : "assembly_point",
               "assembly_point:earthquake" : "yes"
               }
    }
,
   {
      "id"  : 46,
      "lat" : 46.057778,
      "lon" : 12.781569,
      "tags" : {
               "name" : "Casale Venante",
               "ref" : 1,
               "emergency" : "assembly_point",
               "assembly_point:earthquake" : "yes"
               }
    }
,
   {
      "id"  : 47,
      "lat" : 46.075431,
      "lon" : 12.778858,
      "tags" : {
               "name" : "Scuola di Vivaro",
               "ref" : 2,
               "emergency" : "assembly_point",
               "assembly_point:earthquake" : "yes"
               }
    }
,
   {
      "id"  : 48,
      "lat" : 46.113208,
      "lon" : 12.787925,
      "tags" : {
               "name" : "EX Ambulatorio Tesis",
               "ref" : 3,
               "emergency" : "assembly_point",
               "assembly_point:earthquake" : "yes"
               }
    }
,
   {
      "id"  : 49,
      "lat" : 46.077206,
      "lon" : 12.776997,
      "tags" : {
               "name" : "Dietro Asilo",
               "ref" : 15,
               "emergency" : "assembly_point",
               "assembly_point:earthquake" : "yes"
               }
    }
,
   {
      "id"  : 50,
      "lat" : 46.078972,
      "lon" : 12.77785,
      "tags" : {
               "name" : "Via S.Elena",
               "ref" : 16,
               "emergency" : "assembly_point",
               "assembly_point:earthquake" : "yes"
               }
    }
,
   {
      "id"  : 51,
      "lat" : 46.111117,
      "lon" : 12.787389,
      "tags" : {
               "name" : "Scuole Tesis - via Fratelli del Moro",
               "ref" : 18,
               "emergency" : "assembly_point",
               "assembly_point:earthquake" : "yes"
               }
    }
,
   {
      "id"  : 52,
      "lat" : 46.088733,
      "lon" : 12.787417,
      "tags" : {
               "name" : "Parcheggio Villa Cigolotti",
               "ref" : 19,
               "emergency" : "assembly_point",
               "assembly_point:earthquake" : "yes"
               }
    }
,
   {
      "id"  : 53,
      "lat" : 46.085533,
      "lon" : 12.7883,
      "tags" : {
               "name" : "Poç di Basaldella",
               "ref" : 20,
               "emergency" : "assembly_point",
               "assembly_point:earthquake" : "yes"
               }
    }
,
   {
      "id"  : 54,
      "lat" : 46.234142,
      "lon" : 13.155164,
      "tags" : {
               "name" : "Sede Comunale",
               "ref" : 1,
               "emergency" : "assembly_point",
               "assembly_point:earthquake" : "yes"
               }
    }
,
   {
      "id"  : 55,
      "lat" : 45.954758,
      "lon" : 12.83875,
      "tags" : {
               "name" : "Comando Stazione",
               "ref" : 1,
               "emergency" : "assembly_point",
               "assembly_point:earthquake" : "yes"
               }
    }
,
   {
      "id"  : 56,
      "lat" : 45.904531,
      "lon" : 12.536481,
      "tags" : {
               "name" : "Area verde via A. Volta",
               "ref" : 1,
               "emergency" : "assembly_point",
               "assembly_point:earthquake" : "yes"
               }
    }
,
   {
      "id"  : 57,
      "lat" : 45.903164,
      "lon" : 12.531061,
      "tags" : {
               "name" : "Area verde scuola media",
               "ref" : 2,
               "emergency" : "assembly_point",
               "assembly_point:earthquake" : "yes"
               }
    }
,
   {
      "id"  : 58,
      "lat" : 45.896897,
      "lon" : 12.556353,
      "tags" : {
               "name" : "Area mercato Maron",
               "ref" : 4,
               "emergency" : "assembly_point",
               "assembly_point:earthquake" : "yes"
               }
    }
,
   {
      "id"  : 59,
      "lat" : 45.875483,
      "lon" : 12.542361,
      "tags" : {
               "name" : "Area esterna cimitero di San Cassiano",
               "ref" : 7,
               "emergency" : "assembly_point",
               "assembly_point:earthquake" : "yes"
               }
    }
,
   {
      "id"  : 60,
      "lat" : 45.906239,
      "lon" : 12.530375,
      "tags" : {
               "name" : "Via Marconi",
               "ref" : 9,
               "emergency" : "assembly_point",
               "assembly_point:earthquake" : "yes"
               }
    }
,
   {
      "id"  : 61,
      "lat" : 45.89475,
      "lon" : 12.545953,
      "tags" : {
               "name" : "Parcherggio campo sportivo Maron",
               "ref" : 12,
               "emergency" : "assembly_point",
               "assembly_point:earthquake" : "yes"
               }
    }
,
   {
      "id"  : 62,
      "lat" : 45.922264,
      "lon" : 12.568672,
      "tags" : {
               "name" : "Area verde Via Giovanni XXIII",
               "ref" : 13,
               "emergency" : "assembly_point",
               "assembly_point:earthquake" : "yes"
               }
    }
,
   {
      "id"  : 63,
      "lat" : 45.898817,
      "lon" : 12.535858,
      "tags" : {
               "name" : "Parcheggio  Municipio",
               "ref" : 14,
               "emergency" : "assembly_point",
               "assembly_point:earthquake" : "yes"
               }
    }
,
   {
      "id"  : 64,
      "lat" : 45.924817,
      "lon" : 12.569281,
      "tags" : {
               "name" : "Parcheggio scuola elementare Tamai",
               "ref" : 15,
               "emergency" : "assembly_point",
               "assembly_point:earthquake" : "yes"
               }
    }
,
   {
      "id"  : 65,
      "lat" : 45.925619,
      "lon" : 12.5716,
      "tags" : {
               "name" : "Parcheggio via A. Moro",
               "ref" : 16,
               "emergency" : "assembly_point",
               "assembly_point:earthquake" : "yes"
               }
    }
,
   {
      "id"  : 66,
      "lat" : 45.9023,
      "lon" : 12.556311,
      "tags" : {
               "name" : "Parcheggio supermercato via Taglio",
               "ref" : 17,
               "emergency" : "assembly_point",
               "assembly_point:earthquake" : "yes"
               }
    }
,
   {
      "id"  : 67,
      "lat" : 45.907964,
      "lon" : 12.540711,
      "tags" : {
               "name" : "Parcheggio ristorante Tinello",
               "ref" : 18,
               "emergency" : "assembly_point",
               "assembly_point:earthquake" : "yes"
               }
    }
,
   {
      "id"  : 68,
      "lat" : 45.910894,
      "lon" : 12.533581,
      "tags" : {
               "name" : "Parcheggio bar via N. Sauro",
               "ref" : 19,
               "emergency" : "assembly_point",
               "assembly_point:earthquake" : "yes"
               }
    }
,
   {
      "id"  : 69,
      "lat" : 46.526569,
      "lon" : 12.991631,
      "tags" : {
               "name" : "Distaccamento Volontari di Cercivento",
               "ref" : 1,
               "emergency" : "assembly_point",
               "assembly_point:earthquake" : "yes"
               }
    }
,
   {
      "id"  : 70,
      "lat" : 46.405336,
      "lon" : 13.302794,
      "tags" : {
               "name" : "COMPENDIO EX CASERMA ZUCCHI",
               "ref" : 1,
               "emergency" : "assembly_point",
               "assembly_point:earthquake" : "yes"
               }
    }
,
   {
      "id"  : 71,
      "lat" : 46.404567,
      "lon" : 13.369344,
      "tags" : {
               "name" : "Chiout Cali",
               "ref" : 2,
               "emergency" : "assembly_point",
               "assembly_point:earthquake" : "yes"
               }
    }
,
   {
      "id"  : 72,
      "lat" : 46.397089,
      "lon" : 13.252308,
      "tags" : {
               "name" : "Roveredo",
               "ref" : 3,
               "emergency" : "assembly_point",
               "assembly_point:earthquake" : "yes"
               }
    }
,
   {
      "id"  : 73,
      "lat" : 46.405261,
      "lon" : 13.305767,
      "tags" : {
               "name" : "Campo sportivo",
               "ref" : 4,
               "emergency" : "assembly_point",
               "assembly_point:earthquake" : "yes"
               }
    }
,
   {
      "id"  : 74,
      "lat" : 46.405664,
      "lon" : 13.315722,
      "tags" : {
               "name" : "Campo Mandi - Raccolana",
               "ref" : 5,
               "emergency" : "assembly_point",
               "assembly_point:earthquake" : "yes"
               }
    }
,
   {
      "id"  : 75,
      "lat" : 46.403567,
      "lon" : 13.378942,
      "tags" : {
               "name" : "Frazione Saletto",
               "ref" : 6,
               "emergency" : "assembly_point",
               "assembly_point:earthquake" : "yes"
               }
    }
,
   {
      "id"  : 76,
      "lat" : 46.400072,
      "lon" : 13.356556,
      "tags" : {
               "name" : "frazione Pezzeit",
               "ref" : 7,
               "emergency" : "assembly_point",
               "assembly_point:earthquake" : "yes"
               }
    }
,
   {
      "id"  : 77,
      "lat" : 46.399819,
      "lon" : 13.40145,
      "tags" : {
               "name" : "Frazione Tamaroz",
               "ref" : 8,
               "emergency" : "assembly_point",
               "assembly_point:earthquake" : "yes"
               }
    }
,
   {
      "id"  : 78,
      "lat" : 46.403128,
      "lon" : 13.416911,
      "tags" : {
               "name" : "Frazione Piani di Qua",
               "ref" : 9,
               "emergency" : "assembly_point",
               "assembly_point:earthquake" : "yes"
               }
    }
,
   {
      "id"  : 79,
      "lat" : 46.401678,
      "lon" : 13.422222,
      "tags" : {
               "name" : "Frazione Piani di Là",
               "ref" : 10,
               "emergency" : "assembly_point",
               "assembly_point:earthquake" : "yes"
               }
    }
,
   {
      "id"  : 80,
      "lat" : 46.401456,
      "lon" : 13.424406,
      "tags" : {
               "name" : "Frazione Pianatti",
               "ref" : 11,
               "emergency" : "assembly_point",
               "assembly_point:earthquake" : "yes"
               }
    }
,
   {
      "id"  : 81,
      "lat" : 46.387331,
      "lon" : 13.473339,
      "tags" : {
               "name" : "Area di Attesa Sella Nevea",
               "ref" : 12,
               "emergency" : "assembly_point",
               "assembly_point:earthquake" : "yes"
               }
    }
,
   {
      "id"  : 82,
      "lat" : 46.400825,
      "lon" : 13.419411,
      "tags" : {
               "name" : "Piani di Sotto",
               "ref" : 13,
               "emergency" : "assembly_point",
               "assembly_point:earthquake" : "yes"
               }
    }
,
   {
      "id"  : 83,
      "lat" : 46.268281,
      "lon" : 12.517392,
      "tags" : {
               "name" : "area Pregulin",
               "ref" : 2,
               "emergency" : "assembly_point",
               "assembly_point:earthquake" : "yes"
               }
    }
,
   {
      "id"  : 84,
      "lat" : 46.268047,
      "lon" : 12.515189,
      "tags" : {
               "name" : "area ex cinema",
               "ref" : 3,
               "emergency" : "assembly_point",
               "assembly_point:earthquake" : "yes"
               }
    }
,
   {
      "id"  : 85,
      "lat" : 46.268875,
      "lon" : 12.513347,
      "tags" : {
               "name" : "Conca verde",
               "ref" : 4,
               "emergency" : "assembly_point",
               "assembly_point:earthquake" : "yes"
               }
    }
,
   {
      "id"  : 86,
      "lat" : 46.268083,
      "lon" : 12.510228,
      "tags" : {
               "name" : "campo sportivo",
               "ref" : 5,
               "emergency" : "assembly_point",
               "assembly_point:earthquake" : "yes"
               }
    }
,
   {
      "id"  : 87,
      "lat" : 46.272,
      "lon" : 12.547956,
      "tags" : {
               "name" : "Lesis",
               "ref" : 9,
               "emergency" : "assembly_point",
               "assembly_point:earthquake" : "yes"
               }
    }
,
   {
      "id"  : 88,
      "lat" : 46.268353,
      "lon" : 12.504222,
      "tags" : {
               "name" : "ex Villaggio Vajont",
               "ref" : 10,
               "emergency" : "assembly_point",
               "assembly_point:earthquake" : "yes"
               }
    }
,
   {
      "id"  : 89,
      "lat" : 46.265894,
      "lon" : 12.475969,
      "tags" : {
               "name" : "Pinedo",
               "ref" : 15,
               "emergency" : "assembly_point",
               "assembly_point:earthquake" : "yes"
               }
    }
,
   {
      "id"  : 90,
      "lat" : 46.247142,
      "lon" : 12.471361,
      "tags" : {
               "name" : "Cellino di Sopra",
               "ref" : 18,
               "emergency" : "assembly_point",
               "assembly_point:earthquake" : "yes"
               }
    }
,
   {
      "id"  : 91,
      "lat" : 46.267903,
      "lon" : 12.513847,
      "tags" : {
               "name" : "Dolomiti",
               "ref" : 19,
               "emergency" : "assembly_point",
               "assembly_point:earthquake" : "yes"
               }
    }
,
   {
      "id"  : 92,
      "lat" : 46.312494,
      "lon" : 13.273878,
      "tags" : {
               "name" : "Musi - Piazza chiesa",
               "ref" : 1,
               "emergency" : "assembly_point",
               "assembly_point:earthquake" : "yes"
               }
    }
,
   {
      "id"  : 93,
      "lat" : 46.275031,
      "lon" : 13.270686,
      "tags" : {
               "name" : "Lusevera - Centro Stolberg",
               "ref" : 2,
               "emergency" : "assembly_point",
               "assembly_point:earthquake" : "yes"
               }
    }
,
   {
      "id"  : 94,
      "lat" : 46.254281,
      "lon" : 13.279736,
      "tags" : {
               "name" : "Villanova - Piazza",
               "ref" : 3,
               "emergency" : "assembly_point",
               "assembly_point:earthquake" : "yes"
               }
    }
,
   {
      "id"  : 95,
      "lat" : 46.279164,
      "lon" : 13.261106,
      "tags" : {
               "name" : "Pradielis - Piazza",
               "ref" : 4,
               "emergency" : "assembly_point",
               "assembly_point:earthquake" : "yes"
               }
    }
,
   {
      "id"  : 96,
      "lat" : 46.264606,
      "lon" : 13.260217,
      "tags" : {
               "name" : "Vedronza - Municipio",
               "ref" : 5,
               "emergency" : "assembly_point",
               "assembly_point:earthquake" : "yes"
               }
    }
,
   {
      "id"  : 97,
      "lat" : 46.280225,
      "lon" : 13.246039,
      "tags" : {
               "name" : "Cesariis - Piazza Cesariis di Sopra",
               "ref" : 6,
               "emergency" : "assembly_point",
               "assembly_point:earthquake" : "yes"
               }
    }
,
   {
      "id"  : 98,
      "lat" : 46.278192,
      "lon" : 13.279592,
      "tags" : {
               "name" : "Micottis - Parcheggio Micottis alta",
               "ref" : 7,
               "emergency" : "assembly_point",
               "assembly_point:earthquake" : "yes"
               }
    }
,
   {
      "id"  : 99,
      "lat" : 46.280953,
      "lon" : 13.223456,
      "tags" : {
               "name" : "Pers",
               "ref" : 8,
               "emergency" : "assembly_point",
               "assembly_point:earthquake" : "yes"
               }
    }
,
   {
      "id"  : 100,
      "lat" : 45.867911,
      "lon" : 13.447178,
      "tags" : {
               "name" : "area parcheggio c/o \"al Taj d'Isonzo\"",
               "ref" : 2,
               "emergency" : "assembly_point",
               "assembly_point:earthquake" : "yes"
               }
    }
,
   {
      "id"  : 101,
      "lat" : 45.857092,
      "lon" : 13.443261,
      "tags" : {
               "name" : "Gorgo",
               "ref" : 9,
               "emergency" : "assembly_point",
               "assembly_point:earthquake" : "yes"
               }
    }
,
   {
      "id"  : 102,
      "lat" : 45.861928,
      "lon" : 13.441128,
      "tags" : {
               "name" : "Parcheggio retro asilo",
               "ref" : 10,
               "emergency" : "assembly_point",
               "assembly_point:earthquake" : "yes"
               }
    }
,
   {
      "id"  : 103,
      "lat" : 45.861847,
      "lon" : 13.435539,
      "tags" : {
               "name" : "parcheggio \"Al Cjavedal\"",
               "ref" : 11,
               "emergency" : "assembly_point",
               "assembly_point:earthquake" : "yes"
               }
    }
,
   {
      "id"  : 104,
      "lat" : 45.646811,
      "lon" : 13.755414,
      "tags" : {
               "name" : "Parcheggio piscina Acquamarina",
               "ref" : 1,
               "emergency" : "assembly_point",
               "assembly_point:earthquake" : "yes"
               }
    }
,
   {
      "id"  : 105,
      "lat" : 45.641181,
      "lon" : 13.75465,
      "tags" : {
               "name" : "Fontana viale Romolo Gessi",
               "ref" : 2,
               "emergency" : "assembly_point",
               "assembly_point:earthquake" : "yes"
               }
    }
,
   {
      "id"  : 106,
      "lat" : 45.642531,
      "lon" : 13.755844,
      "tags" : {
               "name" : "Giardino piazza Carlo Alberto",
               "ref" : 3,
               "emergency" : "assembly_point",
               "assembly_point:earthquake" : "yes"
               }
    }
,
   {
      "id"  : 107,
      "lat" : 45.646844,
      "lon" : 13.760522,
      "tags" : {
               "name" : "Piazzale Starulino e Rode (ex piscina Bianchi)",
               "ref" : 4,
               "emergency" : "assembly_point",
               "assembly_point:earthquake" : "yes"
               }
    }
,
   {
      "id"  : 108,
      "lat" : 45.640706,
      "lon" : 13.766569,
      "tags" : {
               "name" : "Giardino piazzale Rosmini",
               "ref" : 12,
               "emergency" : "assembly_point",
               "assembly_point:earthquake" : "yes"
               }
    }
,
   {
      "id"  : 109,
      "lat" : 45.649619,
      "lon" : 13.777347,
      "tags" : {
               "name" : "Piazza Goldoni",
               "ref" : 16,
               "emergency" : "assembly_point",
               "assembly_point:earthquake" : "yes"
               }
    }
,
   {
      "id"  : 110,
      "lat" : 45.641181,
      "lon" : 13.772019,
      "tags" : {
               "name" : "Parcheggio palazzetto \"Atleti Azzurri d'Italia\"",
               "ref" : 17,
               "emergency" : "assembly_point",
               "assembly_point:earthquake" : "yes"
               }
    }
,
   {
      "id"  : 111,
      "lat" : 45.639519,
      "lon" : 13.794656,
      "tags" : {
               "name" : "Piazzale De Gasperi",
               "ref" : 18,
               "emergency" : "assembly_point",
               "assembly_point:earthquake" : "yes"
               }
    }
,
   {
      "id"  : 112,
      "lat" : 45.645997,
      "lon" : 13.78075,
      "tags" : {
               "name" : "Piazza Garibaldi",
               "ref" : 19,
               "emergency" : "assembly_point",
               "assembly_point:earthquake" : "yes"
               }
    }
,
   {
      "id"  : 113,
      "lat" : 45.648356,
      "lon" : 13.778969,
      "tags" : {
               "name" : "Largo Barriera Vecchia",
               "ref" : 20,
               "emergency" : "assembly_point",
               "assembly_point:earthquake" : "yes"
               }
    }
,
   {
      "id"  : 114,
      "lat" : 45.628333,
      "lon" : 13.794469,
      "tags" : {
               "name" : "Piazzale cimitero Sant'Anna",
               "ref" : 21,
               "emergency" : "assembly_point",
               "assembly_point:earthquake" : "yes"
               }
    }
,
   {
      "id"  : 115,
      "lat" : 45.625122,
      "lon" : 13.794742,
      "tags" : {
               "name" : "Piazzale Valmaura",
               "ref" : 22,
               "emergency" : "assembly_point",
               "assembly_point:earthquake" : "yes"
               }
    }
,
   {
      "id"  : 116,
      "lat" : 45.621308,
      "lon" : 13.790611,
      "tags" : {
               "name" : "Piazzale Azzurri d'Italia",
               "ref" : 24,
               "emergency" : "assembly_point",
               "assembly_point:earthquake" : "yes"
               }
    }
,
   {
      "id"  : 117,
      "lat" : 45.621192,
      "lon" : 13.798708,
      "tags" : {
               "name" : "Parcheggio Stadio Piazzale Cagni",
               "ref" : 25,
               "emergency" : "assembly_point",
               "assembly_point:earthquake" : "yes"
               }
    }
,
   {
      "id"  : 118,
      "lat" : 45.637228,
      "lon" : 13.789756,
      "tags" : {
               "name" : "Giardino via del Veltro",
               "ref" : 30,
               "emergency" : "assembly_point",
               "assembly_point:earthquake" : "yes"
               }
    }
,
   {
      "id"  : 119,
      "lat" : 45.636733,
      "lon" : 13.799839,
      "tags" : {
               "name" : "Parcheggio via dei Modiano",
               "ref" : 31,
               "emergency" : "assembly_point",
               "assembly_point:earthquake" : "yes"
               }
    }
,
   {
      "id"  : 120,
      "lat" : 45.620258,
      "lon" : 13.823981,
      "tags" : {
               "name" : "Parco giochi Borgo S.Sergio (Via Curiel)",
               "ref" : 33,
               "emergency" : "assembly_point",
               "assembly_point:earthquake" : "yes"
               }
    }
,
   {
      "id"  : 121,
      "lat" : 45.618339,
      "lon" : 13.824594,
      "tags" : {
               "name" : "Parco giochi Borgo S.Sergio (Via Cenati)",
               "ref" : 34,
               "emergency" : "assembly_point",
               "assembly_point:earthquake" : "yes"
               }
    }
,
   {
      "id"  : 122,
      "lat" : 45.626678,
      "lon" : 13.805481,
      "tags" : {
               "name" : "Parcheggio via Costalunga (pizzeria Golosone)",
               "ref" : 35,
               "emergency" : "assembly_point",
               "assembly_point:earthquake" : "yes"
               }
    }
,
   {
      "id"  : 123,
      "lat" : 45.627406,
      "lon" : 13.820958,
      "tags" : {
               "name" : "Parcheggio piscina Altura",
               "ref" : 36,
               "emergency" : "assembly_point",
               "assembly_point:earthquake" : "yes"
               }
    }
,
   {
      "id"  : 124,
      "lat" : 45.65845,
      "lon" : 13.839392,
      "tags" : {
               "name" : "Piazzetta Padriciano",
               "ref" : 40,
               "emergency" : "assembly_point",
               "assembly_point:earthquake" : "yes"
               }
    }
,
   {
      "id"  : 125,
      "lat" : 45.664378,
      "lon" : 13.848881,
      "tags" : {
               "name" : "Piazzetta Gropada",
               "ref" : 41,
               "emergency" : "assembly_point",
               "assembly_point:earthquake" : "yes"
               }
    }
,
   {
      "id"  : 126,
      "lat" : 45.642778,
      "lon" : 13.865806,
      "tags" : {
               "name" : "Area verde stagno Basovizza",
               "ref" : 42,
               "emergency" : "assembly_point",
               "assembly_point:earthquake" : "yes"
               }
    }
,
   {
      "id"  : 127,
      "lat" : 45.678472,
      "lon" : 13.803258,
      "tags" : {
               "name" : "Piazzetta Banne",
               "ref" : 44,
               "emergency" : "assembly_point",
               "assembly_point:earthquake" : "yes"
               }
    }
,
   {
      "id"  : 128,
      "lat" : 45.647489,
      "lon" : 13.774647,
      "tags" : {
               "name" : "San Giusto - fontana di Montuzza",
               "ref" : 45,
               "emergency" : "assembly_point",
               "assembly_point:earthquake" : "yes"
               }
    }
,
   {
      "id"  : 129,
      "lat" : 45.647464,
      "lon" : 13.772083,
      "tags" : {
               "name" : "San Giusto - Monumento ai Caduti",
               "ref" : 46,
               "emergency" : "assembly_point",
               "assembly_point:earthquake" : "yes"
               }
    }
,
   {
      "id"  : 130,
      "lat" : 45.645753,
      "lon" : 13.776017,
      "tags" : {
               "name" : "Piazza Sansovino",
               "ref" : 48,
               "emergency" : "assembly_point",
               "assembly_point:earthquake" : "yes"
               }
    }
,
   {
      "id"  : 131,
      "lat" : 45.644347,
      "lon" : 13.777506,
      "tags" : {
               "name" : "Largo Via Veronese / S. Giacomo in Monte",
               "ref" : 49,
               "emergency" : "assembly_point",
               "assembly_point:earthquake" : "yes"
               }
    }
,
   {
      "id"  : 132,
      "lat" : 45.642392,
      "lon" : 13.779658,
      "tags" : {
               "name" : "Campo San Giacomo",
               "ref" : 50,
               "emergency" : "assembly_point",
               "assembly_point:earthquake" : "yes"
               }
    }
,
   {
      "id"  : 133,
      "lat" : 45.637069,
      "lon" : 13.769714,
      "tags" : {
               "name" : "Via Von Bruck (Torre del Lloyd)",
               "ref" : 51,
               "emergency" : "assembly_point",
               "assembly_point:earthquake" : "yes"
               }
    }
,
   {
      "id"  : 134,
      "lat" : 45.638911,
      "lon" : 13.781128,
      "tags" : {
               "name" : "Giardino Ponziana",
               "ref" : 52,
               "emergency" : "assembly_point",
               "assembly_point:earthquake" : "yes"
               }
    }
,
   {
      "id"  : 135,
      "lat" : 45.688711,
      "lon" : 13.785303,
      "tags" : {
               "name" : "Centro civico Opicina - giardino G. e R. Blaima",
               "ref" : 54,
               "emergency" : "assembly_point",
               "assembly_point:earthquake" : "yes"
               }
    }
,
   {
      "id"  : 136,
      "lat" : 45.689414,
      "lon" : 13.797375,
      "tags" : {
               "name" : "Largo Via Freud",
               "ref" : 55,
               "emergency" : "assembly_point",
               "assembly_point:earthquake" : "yes"
               }
    }
,
   {
      "id"  : 137,
      "lat" : 45.672453,
      "lon" : 13.825225,
      "tags" : {
               "name" : "Piazzetta Trebiciano",
               "ref" : 56,
               "emergency" : "assembly_point",
               "assembly_point:earthquake" : "yes"
               }
    }
,
   {
      "id"  : 138,
      "lat" : 45.682639,
      "lon" : 13.784122,
      "tags" : {
               "name" : "Parcheggio loc. quadrivio Opicina",
               "ref" : 58,
               "emergency" : "assembly_point",
               "assembly_point:earthquake" : "yes"
               }
    }
,
   {
      "id"  : 139,
      "lat" : 45.692808,
      "lon" : 13.777383,
      "tags" : {
               "name" : "Giardino via Papaveri / via Fiordalisi",
               "ref" : 60,
               "emergency" : "assembly_point",
               "assembly_point:earthquake" : "yes"
               }
    }
,
   {
      "id"  : 140,
      "lat" : 45.700939,
      "lon" : 13.739747,
      "tags" : {
               "name" : "Giardino Borgo S. Nazario",
               "ref" : 61,
               "emergency" : "assembly_point",
               "assembly_point:earthquake" : "yes"
               }
    }
,
   {
      "id"  : 141,
      "lat" : 45.707453,
      "lon" : 13.734636,
      "tags" : {
               "name" : "Parco giochi Prosecco",
               "ref" : 63,
               "emergency" : "assembly_point",
               "assembly_point:earthquake" : "yes"
               }
    }
,
   {
      "id"  : 142,
      "lat" : 45.736428,
      "lon" : 13.691144,
      "tags" : {
               "name" : "Parcheggio campo sportivo S.Croce",
               "ref" : 64,
               "emergency" : "assembly_point",
               "assembly_point:earthquake" : "yes"
               }
    }
,
   {
      "id"  : 143,
      "lat" : 45.685436,
      "lon" : 13.75665,
      "tags" : {
               "name" : "Parcheggio st. Friuli / via Bernardi",
               "ref" : 65,
               "emergency" : "assembly_point",
               "assembly_point:earthquake" : "yes"
               }
    }
,
   {
      "id"  : 144,
      "lat" : 45.679369,
      "lon" : 13.762192,
      "tags" : {
               "name" : "Parcheggio st. Friuli / via Righetti",
               "ref" : 66,
               "emergency" : "assembly_point",
               "assembly_point:earthquake" : "yes"
               }
    }
,
   {
      "id"  : 145,
      "lat" : 45.664983,
      "lon" : 13.772283,
      "tags" : {
               "name" : "Piazza tra i Rivi",
               "ref" : 68,
               "emergency" : "assembly_point",
               "assembly_point:earthquake" : "yes"
               }
    }
,
   {
      "id"  : 146,
      "lat" : 45.665186,
      "lon" : 13.787125,
      "tags" : {
               "name" : "Parcheggio campo sportivo Cologna",
               "ref" : 69,
               "emergency" : "assembly_point",
               "assembly_point:earthquake" : "yes"
               }
    }
,
   {
      "id"  : 147,
      "lat" : 45.663339,
      "lon" : 13.769481,
      "tags" : {
               "name" : "Largo Roiano",
               "ref" : 70,
               "emergency" : "assembly_point",
               "assembly_point:earthquake" : "yes"
               }
    }
,
   {
      "id"  : 148,
      "lat" : 45.674783,
      "lon" : 13.757858,
      "tags" : {
               "name" : "Parcheggio Faro della Vittoria",
               "ref" : 71,
               "emergency" : "assembly_point",
               "assembly_point:earthquake" : "yes"
               }
    }
,
   {
      "id"  : 149,
      "lat" : 45.657011,
      "lon" : 13.772567,
      "tags" : {
               "name" : "Giardino di piazza Libertà",
               "ref" : 72,
               "emergency" : "assembly_point",
               "assembly_point:earthquake" : "yes"
               }
    }
,
   {
      "id"  : 150,
      "lat" : 45.669556,
      "lon" : 13.766747,
      "tags" : {
               "name" : "Largo Osoppo",
               "ref" : 73,
               "emergency" : "assembly_point",
               "assembly_point:earthquake" : "yes"
               }
    }
,
   {
      "id"  : 151,
      "lat" : 45.684808,
      "lon" : 13.748742,
      "tags" : {
               "name" : "Pineta di Barcola - fontana",
               "ref" : 74,
               "emergency" : "assembly_point",
               "assembly_point:earthquake" : "yes"
               }
    }
,
   {
      "id"  : 152,
      "lat" : 45.654236,
      "lon" : 13.775925,
      "tags" : {
               "name" : "Piazza Oberdan",
               "ref" : 75,
               "emergency" : "assembly_point",
               "assembly_point:earthquake" : "yes"
               }
    }
,
   {
      "id"  : 153,
      "lat" : 45.651658,
      "lon" : 13.77415,
      "tags" : {
               "name" : "Piazza Sant'Antonio Nuovo",
               "ref" : 76,
               "emergency" : "assembly_point",
               "assembly_point:earthquake" : "yes"
               }
    }
,
   {
      "id"  : 154,
      "lat" : 45.649397,
      "lon" : 13.764456,
      "tags" : {
               "name" : "Stazione Marittima",
               "ref" : 77,
               "emergency" : "assembly_point",
               "assembly_point:earthquake" : "yes"
               }
    }
,
   {
      "id"  : 155,
      "lat" : 45.650383,
      "lon" : 13.770383,
      "tags" : {
               "name" : "Piazza della Borsa",
               "ref" : 79,
               "emergency" : "assembly_point",
               "assembly_point:earthquake" : "yes"
               }
    }
,
   {
      "id"  : 156,
      "lat" : 45.653669,
      "lon" : 13.782642,
      "tags" : {
               "name" : "Via Giulia - monumento a D. Rossetti",
               "ref" : 81,
               "emergency" : "assembly_point",
               "assembly_point:earthquake" : "yes"
               }
    }
,
   {
      "id"  : 157,
      "lat" : 45.654353,
      "lon" : 13.789172,
      "tags" : {
               "name" : "Piazza Volontari Giuliani",
               "ref" : 82,
               "emergency" : "assembly_point",
               "assembly_point:earthquake" : "yes"
               }
    }
,
   {
      "id"  : 158,
      "lat" : 45.64185,
      "lon" : 13.811314,
      "tags" : {
               "name" : "Largo via Revoltella - via S.Pasquale",
               "ref" : 83,
               "emergency" : "assembly_point",
               "assembly_point:earthquake" : "yes"
               }
    }
,
   {
      "id"  : 159,
      "lat" : 45.654667,
      "lon" : 13.797614,
      "tags" : {
               "name" : "Parcheggio Rotonda del Boschetto",
               "ref" : 84,
               "emergency" : "assembly_point",
               "assembly_point:earthquake" : "yes"
               }
    }
,
   {
      "id"  : 160,
      "lat" : 45.657578,
      "lon" : 13.7921,
      "tags" : {
               "name" : "Piazzale Europa",
               "ref" : 85,
               "emergency" : "assembly_point",
               "assembly_point:earthquake" : "yes"
               }
    }
,
   {
      "id"  : 161,
      "lat" : 45.658897,
      "lon" : 13.788311,
      "tags" : {
               "name" : "Parcheggio ITIS Volta",
               "ref" : 86,
               "emergency" : "assembly_point",
               "assembly_point:earthquake" : "yes"
               }
    }
,
   {
      "id"  : 162,
      "lat" : 45.660869,
      "lon" : 13.779558,
      "tags" : {
               "name" : "Largo via Cantù / via Romagna",
               "ref" : 87,
               "emergency" : "assembly_point",
               "assembly_point:earthquake" : "yes"
               }
    }
,
   {
      "id"  : 163,
      "lat" : 45.649781,
      "lon" : 13.815867,
      "tags" : {
               "name" : "Parcheggio st. per Longera / via Correggio",
               "ref" : 88,
               "emergency" : "assembly_point",
               "assembly_point:earthquake" : "yes"
               }
    }
,
   {
      "id"  : 164,
      "lat" : 45.653567,
      "lon" : 13.808133,
      "tags" : {
               "name" : "Piazzale ristorante Suban",
               "ref" : 89,
               "emergency" : "assembly_point",
               "assembly_point:earthquake" : "yes"
               }
    }
,
   {
      "id"  : 165,
      "lat" : 45.669797,
      "lon" : 13.793433,
      "tags" : {
               "name" : "Conconello belvedere",
               "ref" : 90,
               "emergency" : "assembly_point",
               "assembly_point:earthquake" : "yes"
               }
    }
,
   {
      "id"  : 166,
      "lat" : 45.638144,
      "lon" : 13.825942,
      "tags" : {
               "name" : "Parcheggio scuola via  Forlanini",
               "ref" : 91,
               "emergency" : "assembly_point",
               "assembly_point:earthquake" : "yes"
               }
    }
,
   {
      "id"  : 167,
      "lat" : 45.644744,
      "lon" : 13.815236,
      "tags" : {
               "name" : "Parcheggio Villa Revoltella",
               "ref" : 92,
               "emergency" : "assembly_point",
               "assembly_point:earthquake" : "yes"
               }
    }
,
   {
      "id"  : 168,
      "lat" : 45.645492,
      "lon" : 13.809672,
      "tags" : {
               "name" : "Ferdinandeo",
               "ref" : 93,
               "emergency" : "assembly_point",
               "assembly_point:earthquake" : "yes"
               }
    }
,
   {
      "id"  : 169,
      "lat" : 45.640236,
      "lon" : 13.805128,
      "tags" : {
               "name" : "Largo via Cumano / via Grimani",
               "ref" : 96,
               "emergency" : "assembly_point",
               "assembly_point:earthquake" : "yes"
               }
    }
,
   {
      "id"  : 170,
      "lat" : 45.655725,
      "lon" : 13.803906,
      "tags" : {
               "name" : "V.le Sanzio 31 - Distributore Q8",
               "ref" : 97,
               "emergency" : "assembly_point",
               "assembly_point:earthquake" : "yes"
               }
    }
,
   {
      "id"  : 171,
      "lat" : 45.651717,
      "lon" : 13.772231,
      "tags" : {
               "name" : "Piazza Ponterosso",
               "ref" : 98,
               "emergency" : "assembly_point",
               "assembly_point:earthquake" : "yes"
               }
    }
,
   {
      "id"  : 172,
      "lat" : 45.624258,
      "lon" : 13.780261,
      "tags" : {
               "name" : "Parcheggio - Via Pitacco",
               "ref" : 99,
               "emergency" : "assembly_point",
               "assembly_point:earthquake" : "yes"
               }
    }
,
   {
      "id"  : 173,
      "lat" : 45.625406,
      "lon" : 13.787011,
      "tags" : {
               "name" : "Via del Panebianco - Mamaca Park",
               "ref" : 100,
               "emergency" : "assembly_point",
               "assembly_point:earthquake" : "yes"
               }
    }
,
   {
      "id"  : 174,
      "lat" : 45.634264,
      "lon" : 13.822439,
      "tags" : {
               "name" : "Via Castelliere / Via Botro",
               "ref" : 101,
               "emergency" : "assembly_point",
               "assembly_point:earthquake" : "yes"
               }
    }
,
   {
      "id"  : 175,
      "lat" : 45.637522,
      "lon" : 13.831939,
      "tags" : {
               "name" : "Strada per Longera - dir. Cattinara",
               "ref" : 102,
               "emergency" : "assembly_point",
               "assembly_point:earthquake" : "yes"
               }
    }
,
   {
      "id"  : 176,
      "lat" : 45.677397,
      "lon" : 13.769808,
      "tags" : {
               "name" : "Via Bonomea alta",
               "ref" : 103,
               "emergency" : "assembly_point",
               "assembly_point:earthquake" : "yes"
               }
    }
,
   {
      "id"  : 177,
      "lat" : 45.635806,
      "lon" : 13.798003,
      "tags" : {
               "name" : "Area verde condominiale via Campanelle",
               "ref" : 104,
               "emergency" : "assembly_point",
               "assembly_point:earthquake" : "yes"
               }
    }
,
   {
      "id"  : 178,
      "lat" : 46.228997,
      "lon" : 13.178872,
      "tags" : {
               "name" : "Parco Giochi",
               "ref" : 1,
               "emergency" : "assembly_point",
               "assembly_point:earthquake" : "yes"
               }
    }
,
   {
      "id"  : 179,
      "lat" : 46.214369,
      "lon" : 13.1795,
      "tags" : {
               "name" : "Piazza Bueriis",
               "ref" : 2,
               "emergency" : "assembly_point",
               "assembly_point:earthquake" : "yes"
               }
    }
,
   {
      "id"  : 180,
      "lat" : 46.225283,
      "lon" : 13.190064,
      "tags" : {
               "name" : "Impianti sportivi (Loc Billerio) sede ALPINI",
               "ref" : 3,
               "emergency" : "assembly_point",
               "assembly_point:earthquake" : "yes"
               }
    }
,
   {
      "id"  : 181,
      "lat" : 46.219747,
      "lon" : 13.201614,
      "tags" : {
               "name" : "Piazza Urana",
               "ref" : 6,
               "emergency" : "assembly_point",
               "assembly_point:earthquake" : "yes"
               }
    }
,
   {
      "id"  : 182,
      "lat" : 46.232767,
      "lon" : 13.167314,
      "tags" : {
               "name" : "Campo Via Dante Alighieri/Via Divisione Julia",
               "ref" : 7,
               "emergency" : "assembly_point",
               "assembly_point:earthquake" : "yes"
               }
    }
,
   {
      "id"  : 183,
      "lat" : 45.924928,
      "lon" : 13.399658,
      "tags" : {
               "name" : "parcheggio via Coppi",
               "ref" : 2,
               "emergency" : "assembly_point",
               "assembly_point:earthquake" : "yes"
               }
    }
,
   {
      "id"  : 184,
      "lat" : 45.927672,
      "lon" : 13.383328,
      "tags" : {
               "name" : "parcheggio di Viscone",
               "ref" : 3,
               "emergency" : "assembly_point",
               "assembly_point:earthquake" : "yes"
               }
    }
,
   {
      "id"  : 185,
      "lat" : 46.266581,
      "lon" : 13.110214,
      "tags" : {
               "name" : "Area Centro Ricreativo Taboga",
               "ref" : 1,
               "emergency" : "assembly_point",
               "assembly_point:earthquake" : "yes"
               }
    }
,
   {
      "id"  : 186,
      "lat" : 46.253278,
      "lon" : 13.117183,
      "tags" : {
               "name" : "Area antistante Centro ricreativo Campo Lessi",
               "ref" : 2,
               "emergency" : "assembly_point",
               "assembly_point:earthquake" : "yes"
               }
    }
,
   {
      "id"  : 187,
      "lat" : 46.264928,
      "lon" : 13.151953,
      "tags" : {
               "name" : "Area Servizi Maniaglia",
               "ref" : 6,
               "emergency" : "assembly_point",
               "assembly_point:earthquake" : "yes"
               }
    }
,
   {
      "id"  : 188,
      "lat" : 46.271728,
      "lon" : 13.1365,
      "tags" : {
               "name" : "Area Parchetto \"Case Ater Via Tarcento\"",
               "ref" : 10,
               "emergency" : "assembly_point",
               "assembly_point:earthquake" : "yes"
               }
    }
,
   {
      "id"  : 189,
      "lat" : 46.285467,
      "lon" : 13.134744,
      "tags" : {
               "name" : "Parcheggio \"Campo Sportivo Simonetti\"",
               "ref" : 14,
               "emergency" : "assembly_point",
               "assembly_point:earthquake" : "yes"
               }
    }
,
   {
      "id"  : 190,
      "lat" : 46.283561,
      "lon" : 13.127672,
      "tags" : {
               "name" : "Piazzale \"Palestra polo Scolastico Superiore\"",
               "ref" : 15,
               "emergency" : "assembly_point",
               "assembly_point:earthquake" : "yes"
               }
    }
,
   {
      "id"  : 191,
      "lat" : 46.286531,
      "lon" : 13.112025,
      "tags" : {
               "name" : "Parcheggio\"Osteria da Rico\"",
               "ref" : 17,
               "emergency" : "assembly_point",
               "assembly_point:earthquake" : "yes"
               }
    }
,
   {
      "id"  : 192,
      "lat" : 46.276867,
      "lon" : 13.135419,
      "tags" : {
               "name" : "Parco Via Dante",
               "ref" : 21,
               "emergency" : "assembly_point",
               "assembly_point:earthquake" : "yes"
               }
    }
,
   {
      "id"  : 193,
      "lat" : 46.274689,
      "lon" : 13.141042,
      "tags" : {
               "name" : "Parcheggio Duomo-Via Sottocastello",
               "ref" : 22,
               "emergency" : "assembly_point",
               "assembly_point:earthquake" : "yes"
               }
    }
,
   {
      "id"  : 194,
      "lat" : 46.291119,
      "lon" : 13.139603,
      "tags" : {
               "name" : "Centro Ricreativo/Sportivo l'Aser",
               "ref" : 23,
               "emergency" : "assembly_point",
               "assembly_point:earthquake" : "yes"
               }
    }
,
   {
      "id"  : 195,
      "lat" : 46.299014,
      "lon" : 13.118703,
      "tags" : {
               "name" : "Area laterale Scuole elem. Ospedaletto",
               "ref" : 24,
               "emergency" : "assembly_point",
               "assembly_point:earthquake" : "yes"
               }
    }
,
   {
      "id"  : 196,
      "lat" : 46.274303,
      "lon" : 13.130331,
      "tags" : {
               "name" : "Piazzale Franco Bertagnolli",
               "ref" : 25,
               "emergency" : "assembly_point",
               "assembly_point:earthquake" : "yes"
               }
    }
,
   {
      "id"  : 197,
      "lat" : 46.280967,
      "lon" : 13.112903,
      "tags" : {
               "name" : "Parcheggio parco giochi Via Trasaghis",
               "ref" : 26,
               "emergency" : "assembly_point",
               "assembly_point:earthquake" : "yes"
               }
    }
,
   {
      "id"  : 198,
      "lat" : 46.292083,
      "lon" : 13.123169,
      "tags" : {
               "name" : "Via Cjamparis fronte fornace",
               "ref" : 27,
               "emergency" : "assembly_point",
               "assembly_point:earthquake" : "yes"
               }
    }
,
   {
      "id"  : 199,
      "lat" : 46.264919,
      "lon" : 13.129961,
      "tags" : {
               "name" : "Parcheggio Condominio Tigli - Via Sofia Pecol",
               "ref" : 28,
               "emergency" : "assembly_point",
               "assembly_point:earthquake" : "yes"
               }
    }
,
   {
      "id"  : 200,
      "lat" : 46.276594,
      "lon" : 13.109019,
      "tags" : {
               "name" : "Parcheggio Bravi Market",
               "ref" : 29,
               "emergency" : "assembly_point",
               "assembly_point:earthquake" : "yes"
               }
    }
,
   {
      "id"  : 201,
      "lat" : 45.984842,
      "lon" : 13.586364,
      "tags" : {
               "name" : "Comando Stazione",
               "ref" : 1,
               "emergency" : "assembly_point",
               "assembly_point:earthquake" : "yes"
               }
    }
,
   {
      "id"  : 202,
      "lat" : 46.013128,
      "lon" : 12.976981,
      "tags" : {
               "name" : "Sedegliano - Parcheggio via XXIV Maggio",
               "ref" : 1,
               "emergency" : "assembly_point",
               "assembly_point:earthquake" : "yes"
               }
    }
,
   {
      "id"  : 203,
      "lat" : 46.001344,
      "lon" : 12.964231,
      "tags" : {
               "name" : "Gradisca - Piazza Regina Margherita",
               "ref" : 2,
               "emergency" : "assembly_point",
               "assembly_point:earthquake" : "yes"
               }
    }
,
   {
      "id"  : 204,
      "lat" : 46.012439,
      "lon" : 12.941053,
      "tags" : {
               "name" : "Rivis - Area verde Via Canonica",
               "ref" : 3,
               "emergency" : "assembly_point",
               "assembly_point:earthquake" : "yes"
               }
    }
,
   {
      "id"  : 205,
      "lat" : 46.028272,
      "lon" : 12.931886,
      "tags" : {
               "name" : "Turrida - Piazza",
               "ref" : 4,
               "emergency" : "assembly_point",
               "assembly_point:earthquake" : "yes"
               }
    }
,
   {
      "id"  : 206,
      "lat" : 46.037697,
      "lon" : 12.969625,
      "tags" : {
               "name" : "Grions Piazza Vittorio Emanuele",
               "ref" : 5,
               "emergency" : "assembly_point",
               "assembly_point:earthquake" : "yes"
               }
    }
,
   {
      "id"  : 207,
      "lat" : 46.030167,
      "lon" : 12.991103,
      "tags" : {
               "name" : "Coderno - Parcheggio",
               "ref" : 7,
               "emergency" : "assembly_point",
               "assembly_point:earthquake" : "yes"
               }
    }
,
   {
      "id"  : 208,
      "lat" : 46.017003,
      "lon" : 12.977728,
      "tags" : {
               "name" : "Area giochi - Sedegliano",
               "ref" : 8,
               "emergency" : "assembly_point",
               "assembly_point:earthquake" : "yes"
               }
    }
,
   {
      "id"  : 209,
      "lat" : 46.040292,
      "lon" : 12.931414,
      "tags" : {
               "name" : "Piazza di Redenzicco",
               "ref" : 9,
               "emergency" : "assembly_point",
               "assembly_point:earthquake" : "yes"
               }
    }
,
   {
      "id"  : 210,
      "lat" : 46.030675,
      "lon" : 12.993322,
      "tags" : {
               "name" : "Piazzetta di Coderno",
               "ref" : 10,
               "emergency" : "assembly_point",
               "assembly_point:earthquake" : "yes"
               }
    }
,
   {
      "id"  : 211,
      "lat" : 46.000822,
      "lon" : 12.997717,
      "tags" : {
               "name" : "Piazza di San Lorenzo",
               "ref" : 11,
               "emergency" : "assembly_point",
               "assembly_point:earthquake" : "yes"
               }
    }
,
   {
      "id"  : 212,
      "lat" : 46.001306,
      "lon" : 12.995758,
      "tags" : {
               "name" : "Piazzetta di San Lorenzo",
               "ref" : 12,
               "emergency" : "assembly_point",
               "assembly_point:earthquake" : "yes"
               }
    }
,
   {
      "id"  : 213,
      "lat" : 46.001661,
      "lon" : 12.958953,
      "tags" : {
               "name" : "Lottizzazione \"Tai ciamps di vie di Rivis\"",
               "ref" : 13,
               "emergency" : "assembly_point",
               "assembly_point:earthquake" : "yes"
               }
    }
,
   {
      "id"  : 214,
      "lat" : 46.131933,
      "lon" : 13.296433,
      "tags" : {
               "name" : "Area scoperta annessa al Centro scolastico",
               "ref" : 1,
               "emergency" : "assembly_point",
               "assembly_point:earthquake" : "yes"
               }
    }
,
   {
      "id"  : 215,
      "lat" : 46.151431,
      "lon" : 13.294058,
      "tags" : {
               "name" : "Ravosa Nord",
               "ref" : 5,
               "emergency" : "assembly_point",
               "assembly_point:earthquake" : "yes"
               }
    }
,
   {
      "id"  : 216,
      "lat" : 46.143689,
      "lon" : 13.304867,
      "tags" : {
               "name" : "Magredis - Lascito Fabris",
               "ref" : 6,
               "emergency" : "assembly_point",
               "assembly_point:earthquake" : "yes"
               }
    }
,
   {
      "id"  : 217,
      "lat" : 46.102239,
      "lon" : 13.307003,
      "tags" : {
               "name" : "Grions - ex scuole",
               "ref" : 8,
               "emergency" : "assembly_point",
               "assembly_point:earthquake" : "yes"
               }
    }
,
   {
      "id"  : 218,
      "lat" : 46.119264,
      "lon" : 13.303983,
      "tags" : {
               "name" : "Povoletto Villa Pitotti",
               "ref" : 9,
               "emergency" : "assembly_point",
               "assembly_point:earthquake" : "yes"
               }
    }
,
   {
      "id"  : 219,
      "lat" : 46.137222,
      "lon" : 13.318256,
      "tags" : {
               "name" : "Bellazoia - Piazza",
               "ref" : 10,
               "emergency" : "assembly_point",
               "assembly_point:earthquake" : "yes"
               }
    }
,
   {
      "id"  : 220,
      "lat" : 46.129603,
      "lon" : 13.313614,
      "tags" : {
               "name" : "Siacco",
               "ref" : 11,
               "emergency" : "assembly_point",
               "assembly_point:earthquake" : "yes"
               }
    }
,
   {
      "id"  : 221,
      "lat" : 46.164669,
      "lon" : 13.266544,
      "tags" : {
               "name" : "Savorgnano Asilo",
               "ref" : 13,
               "emergency" : "assembly_point",
               "assembly_point:earthquake" : "yes"
               }
    }
,
   {
      "id"  : 222,
      "lat" : 46.113611,
      "lon" : 13.282494,
      "tags" : {
               "name" : "Salt slargo Arcadia",
               "ref" : 15,
               "emergency" : "assembly_point",
               "assembly_point:earthquake" : "yes"
               }
    }
,
   {
      "id"  : 223,
      "lat" : 46.119592,
      "lon" : 13.297528,
      "tags" : {
               "name" : "Povoletto centro ricreativo giovanile",
               "ref" : 16,
               "emergency" : "assembly_point",
               "assembly_point:earthquake" : "yes"
               }
    }
,
   {
      "id"  : 224,
      "lat" : 46.1325,
      "lon" : 13.283658,
      "tags" : {
               "name" : "Belvedere",
               "ref" : 17,
               "emergency" : "assembly_point",
               "assembly_point:earthquake" : "yes"
               }
    }
,
   {
      "id"  : 225,
      "lat" : 46.141478,
      "lon" : 13.275081,
      "tags" : {
               "name" : "Primulacco Chiesa",
               "ref" : 18,
               "emergency" : "assembly_point",
               "assembly_point:earthquake" : "yes"
               }
    }
,
   {
      "id"  : 226,
      "lat" : 46.142983,
      "lon" : 13.279878,
      "tags" : {
               "name" : "Marsure di Sopra",
               "ref" : 19,
               "emergency" : "assembly_point",
               "assembly_point:earthquake" : "yes"
               }
    }
,
   {
      "id"  : 227,
      "lat" : 46.142969,
      "lon" : 13.269561,
      "tags" : {
               "name" : "Primulacco Bar Montecarlo",
               "ref" : 20,
               "emergency" : "assembly_point",
               "assembly_point:earthquake" : "yes"
               }
    }
,
   {
      "id"  : 228,
      "lat" : 46.115778,
      "lon" : 13.288608,
      "tags" : {
               "name" : "Salt Posta",
               "ref" : 22,
               "emergency" : "assembly_point",
               "assembly_point:earthquake" : "yes"
               }
    }
,
   {
      "id"  : 229,
      "lat" : 46.094108,
      "lon" : 13.291097,
      "tags" : {
               "name" : "Grions Zona industriale",
               "ref" : 23,
               "emergency" : "assembly_point",
               "assembly_point:earthquake" : "yes"
               }
    }
,
   {
      "id"  : 230,
      "lat" : 46.128603,
      "lon" : 13.298125,
      "tags" : {
               "name" : "Marsure di Sotto",
               "ref" : 26,
               "emergency" : "assembly_point",
               "assembly_point:earthquake" : "yes"
               }
    }
,
   {
      "id"  : 231,
      "lat" : 46.149928,
      "lon" : 13.276142,
      "tags" : {
               "name" : "Casali  Jacob",
               "ref" : 27,
               "emergency" : "assembly_point",
               "assembly_point:earthquake" : "yes"
               }
    }
,
   {
      "id"  : 232,
      "lat" : 46.115231,
      "lon" : 13.302136,
      "tags" : {
               "name" : "Povoletto Sud",
               "ref" : 29,
               "emergency" : "assembly_point",
               "assembly_point:earthquake" : "yes"
               }
    }
,
   {
      "id"  : 233,
      "lat" : 46.166542,
      "lon" : 13.268031,
      "tags" : {
               "name" : "Savorgnano via dei Boschi",
               "ref" : 30,
               "emergency" : "assembly_point",
               "assembly_point:earthquake" : "yes"
               }
    }
,
   {
      "id"  : 234,
      "lat" : 46.10685,
      "lon" : 13.304,
      "tags" : {
               "name" : "Grions nord",
               "ref" : 32,
               "emergency" : "assembly_point",
               "assembly_point:earthquake" : "yes"
               }
    }
,
   {
      "id"  : 235,
      "lat" : 46.1038,
      "lon" : 13.3134,
      "tags" : {
               "name" : "Grions Via Repubblica",
               "ref" : 33,
               "emergency" : "assembly_point",
               "assembly_point:earthquake" : "yes"
               }
    }
,
   {
      "id"  : 236,
      "lat" : 46.161475,
      "lon" : 13.294497,
      "tags" : {
               "name" : "Ravosa Via Fontana Falcon Pavie",
               "ref" : 35,
               "emergency" : "assembly_point",
               "assembly_point:earthquake" : "yes"
               }
    }
,
   {
      "id"  : 237,
      "lat" : 46.1403,
      "lon" : 13.317572,
      "tags" : {
               "name" : "Bellazoia Nando",
               "ref" : 37,
               "emergency" : "assembly_point",
               "assembly_point:earthquake" : "yes"
               }
    }
,
   {
      "id"  : 238,
      "lat" : 46.120356,
      "lon" : 13.301497,
      "tags" : {
               "name" : "Lottizzazione Zancan - Parco Giochi",
               "ref" : 38,
               "emergency" : "assembly_point",
               "assembly_point:earthquake" : "yes"
               }
    }
,
   {
      "id"  : 239,
      "lat" : 46.117719,
      "lon" : 13.316006,
      "tags" : {
               "name" : "Povoletto - Via Beltramini",
               "ref" : 39,
               "emergency" : "assembly_point",
               "assembly_point:earthquake" : "yes"
               }
    }
,
   {
      "id"  : 240,
      "lat" : 46.166564,
      "lon" : 13.265131,
      "tags" : {
               "name" : "Savorgnano Chiesa",
               "ref" : 40,
               "emergency" : "assembly_point",
               "assembly_point:earthquake" : "yes"
               }
    }
,
   {
      "id"  : 241,
      "lat" : 46.163619,
      "lon" : 13.269853,
      "tags" : {
               "name" : "Savorgnano Monumento",
               "ref" : 41,
               "emergency" : "assembly_point",
               "assembly_point:earthquake" : "yes"
               }
    }
,
   {
      "id"  : 242,
      "lat" : 46.111547,
      "lon" : 13.285925,
      "tags" : {
               "name" : "Via Kennedy",
               "ref" : 42,
               "emergency" : "assembly_point",
               "assembly_point:earthquake" : "yes"
               }
    }
,
   {
      "id"  : 243,
      "lat" : 46.115092,
      "lon" : 13.283936,
      "tags" : {
               "name" : "via verona",
               "ref" : 43,
               "emergency" : "assembly_point",
               "assembly_point:earthquake" : "yes"
               }
    }
,
   {
      "id"  : 244,
      "lat" : 46.164031,
      "lon" : 13.264581,
      "tags" : {
               "name" : "Via Risorgimento",
               "ref" : 46,
               "emergency" : "assembly_point",
               "assembly_point:earthquake" : "yes"
               }
    }
,
   {
      "id"  : 245,
      "lat" : 46.141211,
      "lon" : 13.304758,
      "tags" : {
               "name" : "Magredis",
               "ref" : 47,
               "emergency" : "assembly_point",
               "assembly_point:earthquake" : "yes"
               }
    }
,
   {
      "id"  : 246,
      "lat" : 46.140372,
      "lon" : 13.307328,
      "tags" : {
               "name" : "Magredis Sud",
               "ref" : 48,
               "emergency" : "assembly_point",
               "assembly_point:earthquake" : "yes"
               }
    }
,
   {
      "id"  : 247,
      "lat" : 46.124039,
      "lon" : 13.306081,
      "tags" : {
               "name" : "Povoletto Zona Industriale",
               "ref" : 49,
               "emergency" : "assembly_point",
               "assembly_point:earthquake" : "yes"
               }
    }
,
   {
      "id"  : 248,
      "lat" : 46.168481,
      "lon" : 12.897292,
      "tags" : {
               "name" : "PINZANO AL TAGLIAMENTO",
               "ref" : 1,
               "emergency" : "assembly_point",
               "assembly_point:earthquake" : "yes"
               }
    }
,
   {
      "id"  : 249,
      "lat" : 45.759794,
      "lon" : 13.16355,
      "tags" : {
               "name" : "attesa parco Schweighouse",
               "ref" : 2,
               "emergency" : "assembly_point",
               "assembly_point:earthquake" : "yes"
               }
    }
,
   {
      "id"  : 250,
      "lat" : 45.764719,
      "lon" : 13.165406,
      "tags" : {
               "name" : "piazza dello Squero",
               "ref" : 3,
               "emergency" : "assembly_point",
               "assembly_point:earthquake" : "yes"
               }
    }
,
   {
      "id"  : 251,
      "lat" : 45.765581,
      "lon" : 13.171994,
      "tags" : {
               "name" : "via San Marco",
               "ref" : 4,
               "emergency" : "assembly_point",
               "assembly_point:earthquake" : "yes"
               }
    }
,
   {
      "id"  : 252,
      "lat" : 45.768406,
      "lon" : 13.167714,
      "tags" : {
               "name" : "via Udine",
               "ref" : 5,
               "emergency" : "assembly_point",
               "assembly_point:earthquake" : "yes"
               }
    }
,
   {
      "id"  : 253,
      "lat" : 45.874317,
      "lon" : 13.533617,
      "tags" : {
               "name" : "Comando Stazione",
               "ref" : 1,
               "emergency" : "assembly_point",
               "assembly_point:earthquake" : "yes"
               }
    }
,
   {
      "id"  : 254,
      "lat" : 46.396181,
      "lon" : 12.847147,
      "tags" : {
               "name" : "Area parcheggio sala da ballo Socchieve",
               "ref" : 6,
               "emergency" : "assembly_point",
               "assembly_point:earthquake" : "yes"
               }
    }
,
   {
      "id"  : 255,
      "lat" : 46.418628,
      "lon" : 12.835428,
      "tags" : {
               "name" : "Piazza Monumento FELTRONE",
               "ref" : 13,
               "emergency" : "assembly_point",
               "assembly_point:earthquake" : "yes"
               }
    }
,
   {
      "id"  : 256,
      "lat" : 46.411008,
      "lon" : 12.821906,
      "tags" : {
               "name" : "Borgo nicolo' Paganini",
               "ref" : 22,
               "emergency" : "assembly_point",
               "assembly_point:earthquake" : "yes"
               }
    }
,
   {
      "id"  : 257,
      "lat" : 46.398578,
      "lon" : 12.837133,
      "tags" : {
               "name" : "Inizio abitato da mediis",
               "ref" : 30,
               "emergency" : "assembly_point",
               "assembly_point:earthquake" : "yes"
               }
    }
,
   {
      "id"  : 258,
      "lat" : 46.404103,
      "lon" : 12.823889,
      "tags" : {
               "name" : "Sede Protezione Civile",
               "ref" : 39,
               "emergency" : "assembly_point",
               "assembly_point:earthquake" : "yes"
               }
    }
,
   {
      "id"  : 259,
      "lat" : 46.406047,
      "lon" : 12.803675,
      "tags" : {
               "name" : "Chiamesans piazzetta",
               "ref" : 41,
               "emergency" : "assembly_point",
               "assembly_point:earthquake" : "yes"
               }
    }
,
   {
      "id"  : 260,
      "lat" : 46.403067,
      "lon" : 12.813714,
      "tags" : {
               "name" : "Parcheggio sala da ballo",
               "ref" : 44,
               "emergency" : "assembly_point",
               "assembly_point:earthquake" : "yes"
               }
    }
,
   {
      "id"  : 261,
      "lat" : 46.380214,
      "lon" : 12.786211,
      "tags" : {
               "name" : "Parcheggio osteria Caprizi",
               "ref" : 47,
               "emergency" : "assembly_point",
               "assembly_point:earthquake" : "yes"
               }
    }
,
   {
      "id"  : 262,
      "lat" : 46.398031,
      "lon" : 12.851031,
      "tags" : {
               "name" : "Centro Culturale",
               "ref" : 48,
               "emergency" : "assembly_point",
               "assembly_point:earthquake" : "yes"
               }
    }
,
   {
      "id"  : 263,
      "lat" : 46.413972,
      "lon" : 12.831558,
      "tags" : {
               "name" : "Ex Scuole dilignidis",
               "ref" : 49,
               "emergency" : "assembly_point",
               "assembly_point:earthquake" : "yes"
               }
    }
,
   {
      "id"  : 264,
      "lat" : 46.407178,
      "lon" : 12.849153,
      "tags" : {
               "name" : "La Baita",
               "ref" : 50,
               "emergency" : "assembly_point",
               "assembly_point:earthquake" : "yes"
               }
    }
,
   {
      "id"  : 265,
      "lat" : 46.128839,
      "lon" : 13.326428,
      "tags" : {
               "name" : "Ronchis piazza",
               "ref" : 3,
               "emergency" : "assembly_point",
               "assembly_point:earthquake" : "yes"
               }
    }
,
   {
      "id"  : 266,
      "lat" : 46.1306,
      "lon" : 13.362417,
      "tags" : {
               "name" : "Campeglio Piazza chiesa",
               "ref" : 4,
               "emergency" : "assembly_point",
               "assembly_point:earthquake" : "yes"
               }
    }
,
   {
      "id"  : 267,
      "lat" : 46.179269,
      "lon" : 13.382861,
      "tags" : {
               "name" : "Canebola",
               "ref" : 5,
               "emergency" : "assembly_point",
               "assembly_point:earthquake" : "yes"
               }
    }
,
   {
      "id"  : 268,
      "lat" : 46.15745,
      "lon" : 13.393517,
      "tags" : {
               "name" : "Valle \"baracca Bearzi\"",
               "ref" : 6,
               "emergency" : "assembly_point",
               "assembly_point:earthquake" : "yes"
               }
    }
,
   {
      "id"  : 269,
      "lat" : 46.163875,
      "lon" : 13.358253,
      "tags" : {
               "name" : "Canal di Grivò",
               "ref" : 7,
               "emergency" : "assembly_point",
               "assembly_point:earthquake" : "yes"
               }
    }
,
   {
      "id"  : 270,
      "lat" : 46.159778,
      "lon" : 13.35855,
      "tags" : {
               "name" : "Canal del ferro Località \"Crosade\"",
               "ref" : 41,
               "emergency" : "assembly_point",
               "assembly_point:earthquake" : "yes"
               }
    }
,
   {
      "id"  : 271,
      "lat" : 46.160111,
      "lon" : 13.353897,
      "tags" : {
               "name" : "Borgo Scubla",
               "ref" : 42,
               "emergency" : "assembly_point",
               "assembly_point:earthquake" : "yes"
               }
    }
,
   {
      "id"  : 272,
      "lat" : 46.173803,
      "lon" : 13.359336,
      "tags" : {
               "name" : "Costapiana",
               "ref" : 43,
               "emergency" : "assembly_point",
               "assembly_point:earthquake" : "yes"
               }
    }
,
   {
      "id"  : 273,
      "lat" : 46.174508,
      "lon" : 13.362731,
      "tags" : {
               "name" : "Gradischiutta",
               "ref" : 44,
               "emergency" : "assembly_point",
               "assembly_point:earthquake" : "yes"
               }
    }
,
   {
      "id"  : 274,
      "lat" : 46.181022,
      "lon" : 13.367272,
      "tags" : {
               "name" : "Clap",
               "ref" : 45,
               "emergency" : "assembly_point",
               "assembly_point:earthquake" : "yes"
               }
    }
,
   {
      "id"  : 275,
      "lat" : 46.153161,
      "lon" : 13.348428,
      "tags" : {
               "name" : "Via dei Mulini - Faedis",
               "ref" : 46,
               "emergency" : "assembly_point",
               "assembly_point:earthquake" : "yes"
               }
    }
,
   {
      "id"  : 276,
      "lat" : 46.149758,
      "lon" : 13.348308,
      "tags" : {
               "name" : "Via del Convento - Faedis",
               "ref" : 47,
               "emergency" : "assembly_point",
               "assembly_point:earthquake" : "yes"
               }
    }
,
   {
      "id"  : 277,
      "lat" : 46.152056,
      "lon" : 13.340719,
      "tags" : {
               "name" : "Munumento Resistenza - Faedis",
               "ref" : 51,
               "emergency" : "assembly_point",
               "assembly_point:earthquake" : "yes"
               }
    }
,
   {
      "id"  : 278,
      "lat" : 46.148353,
      "lon" : 13.341594,
      "tags" : {
               "name" : "Via Lea d'Orlandi",
               "ref" : 52,
               "emergency" : "assembly_point",
               "assembly_point:earthquake" : "yes"
               }
    }
,
   {
      "id"  : 279,
      "lat" : 46.139003,
      "lon" : 13.337758,
      "tags" : {
               "name" : "Casali De Luca",
               "ref" : 53,
               "emergency" : "assembly_point",
               "assembly_point:earthquake" : "yes"
               }
    }
,
   {
      "id"  : 280,
      "lat" : 46.140272,
      "lon" : 13.349189,
      "tags" : {
               "name" : "Centro Sportivo Castellterçol",
               "ref" : 54,
               "emergency" : "assembly_point",
               "assembly_point:earthquake" : "yes"
               }
    }
,
   {
      "id"  : 281,
      "lat" : 46.141769,
      "lon" : 13.361647,
      "tags" : {
               "name" : "Raschiacco",
               "ref" : 58,
               "emergency" : "assembly_point",
               "assembly_point:earthquake" : "yes"
               }
    }
,
   {
      "id"  : 282,
      "lat" : 46.128714,
      "lon" : 13.358611,
      "tags" : {
               "name" : "Monumento Alpini Campeglio",
               "ref" : 59,
               "emergency" : "assembly_point",
               "assembly_point:earthquake" : "yes"
               }
    }
,
   {
      "id"  : 283,
      "lat" : 46.127294,
      "lon" : 13.3672,
      "tags" : {
               "name" : "Campeglio OVEST",
               "ref" : 60,
               "emergency" : "assembly_point",
               "assembly_point:earthquake" : "yes"
               }
    }
,
   {
      "id"  : 284,
      "lat" : 46.114022,
      "lon" : 13.361975,
      "tags" : {
               "name" : "Case Presa",
               "ref" : 61,
               "emergency" : "assembly_point",
               "assembly_point:earthquake" : "yes"
               }
    }
,
   {
      "id"  : 285,
      "lat" : 46.134003,
      "lon" : 13.383406,
      "tags" : {
               "name" : "Colloredo",
               "ref" : 62,
               "emergency" : "assembly_point",
               "assembly_point:earthquake" : "yes"
               }
    }
,
   {
      "id"  : 286,
      "lat" : 46.156256,
      "lon" : 13.372844,
      "tags" : {
               "name" : "Costalunga",
               "ref" : 63,
               "emergency" : "assembly_point",
               "assembly_point:earthquake" : "yes"
               }
    }
,
   {
      "id"  : 287,
      "lat" : 46.202556,
      "lon" : 13.401797,
      "tags" : {
               "name" : "Agriturismo \"da Zaro\"",
               "ref" : 66,
               "emergency" : "assembly_point",
               "assembly_point:earthquake" : "yes"
               }
    }
,
   {
      "id"  : 288,
      "lat" : 45.968586,
      "lon" : 12.448239,
      "tags" : {
               "name" : "Piazza Martiri Garibaldini",
               "ref" : 1,
               "emergency" : "assembly_point",
               "assembly_point:earthquake" : "yes"
               }
    }
,
   {
      "id"  : 289,
      "lat" : 45.964431,
      "lon" : 12.435578,
      "tags" : {
               "name" : "Parcheggio scuole Stevenà",
               "ref" : 4,
               "emergency" : "assembly_point",
               "assembly_point:earthquake" : "yes"
               }
    }
,
   {
      "id"  : 290,
      "lat" : 45.983653,
      "lon" : 12.475364,
      "tags" : {
               "name" : "Parcheggio Chiesa",
               "ref" : 5,
               "emergency" : "assembly_point",
               "assembly_point:earthquake" : "yes"
               }
    }
,
   {
      "id"  : 291,
      "lat" : 45.993208,
      "lon" : 12.464739,
      "tags" : {
               "name" : "Parcheggio via  Montello",
               "ref" : 8,
               "emergency" : "assembly_point",
               "assembly_point:earthquake" : "yes"
               }
    }
,
   {
      "id"  : 292,
      "lat" : 45.951692,
      "lon" : 12.447392,
      "tags" : {
               "name" : "Parcheggio via Lenisa a Fratta",
               "ref" : 9,
               "emergency" : "assembly_point",
               "assembly_point:earthquake" : "yes"
               }
    }
,
   {
      "id"  : 293,
      "lat" : 45.966006,
      "lon" : 12.448483,
      "tags" : {
               "name" : "Via Trieste",
               "ref" : 10,
               "emergency" : "assembly_point",
               "assembly_point:earthquake" : "yes"
               }
    }
,
   {
      "id"  : 294,
      "lat" : 45.99015,
      "lon" : 12.467553,
      "tags" : {
               "name" : "Via Carso",
               "ref" : 11,
               "emergency" : "assembly_point",
               "assembly_point:earthquake" : "yes"
               }
    }
,
   {
      "id"  : 295,
      "lat" : 45.991661,
      "lon" : 12.46165,
      "tags" : {
               "name" : "Parcheggio via XXV Aprile",
               "ref" : 12,
               "emergency" : "assembly_point",
               "assembly_point:earthquake" : "yes"
               }
    }
,
   {
      "id"  : 296,
      "lat" : 45.968592,
      "lon" : 12.453969,
      "tags" : {
               "name" : "via Giovanni Falcone",
               "ref" : 13,
               "emergency" : "assembly_point",
               "assembly_point:earthquake" : "yes"
               }
    }
,
   {
      "id"  : 297,
      "lat" : 45.967217,
      "lon" : 12.433556,
      "tags" : {
               "name" : "Piazza del Carmine",
               "ref" : 14,
               "emergency" : "assembly_point",
               "assembly_point:earthquake" : "yes"
               }
    }
,
   {
      "id"  : 298,
      "lat" : 45.930231,
      "lon" : 13.527436,
      "tags" : {
               "name" : "Comando Stazione",
               "ref" : 1,
               "emergency" : "assembly_point",
               "assembly_point:earthquake" : "yes"
               }
    }
,
   {
      "id"  : 299,
      "lat" : 45.859386,
      "lon" : 13.321514,
      "tags" : {
               "name" : "Strassoldo - Parcheggio Via delle Scuole",
               "ref" : 1,
               "emergency" : "assembly_point",
               "assembly_point:earthquake" : "yes"
               }
    }
,
   {
      "id"  : 300,
      "lat" : 45.839183,
      "lon" : 13.329353,
      "tags" : {
               "name" : "Muscoli-Spogliatoio Campo di Calcio",
               "ref" : 2,
               "emergency" : "assembly_point",
               "assembly_point:earthquake" : "yes"
               }
    }
,
   {
      "id"  : 301,
      "lat" : 45.823444,
      "lon" : 13.358983,
      "tags" : {
               "name" : "Parcheggio cimitero Scodovacca",
               "ref" : 3,
               "emergency" : "assembly_point",
               "assembly_point:earthquake" : "yes"
               }
    }
,
   {
      "id"  : 302,
      "lat" : 45.827819,
      "lon" : 13.332764,
      "tags" : {
               "name" : "Cervignano-Scuole Medie via Udine",
               "ref" : 6,
               "emergency" : "assembly_point",
               "assembly_point:earthquake" : "yes"
               }
    }
,
   {
      "id"  : 303,
      "lat" : 45.822203,
      "lon" : 13.337917,
      "tags" : {
               "name" : "Cervignano via borgo salomon",
               "ref" : 7,
               "emergency" : "assembly_point",
               "assembly_point:earthquake" : "yes"
               }
    }
,
   {
      "id"  : 304,
      "lat" : 45.819894,
      "lon" : 13.3303,
      "tags" : {
               "name" : "Cervignano-Scuola Elementare via Caiù",
               "ref" : 8,
               "emergency" : "assembly_point",
               "assembly_point:earthquake" : "yes"
               }
    }
,
   {
      "id"  : 305,
      "lat" : 45.816725,
      "lon" : 13.348444,
      "tags" : {
               "name" : "Cervignano-Scuola Elementare via Turisella",
               "ref" : 9,
               "emergency" : "assembly_point",
               "assembly_point:earthquake" : "yes"
               }
    }
,
   {
      "id"  : 306,
      "lat" : 45.825958,
      "lon" : 13.339592,
      "tags" : {
               "name" : "Cervignano-Asilo via Ramazzotti",
               "ref" : 11,
               "emergency" : "assembly_point",
               "assembly_point:earthquake" : "yes"
               }
    }
,
   {
      "id"  : 307,
      "lat" : 45.816703,
      "lon" : 13.333817,
      "tags" : {
               "name" : "Cervignano-Asilo via Predicort",
               "ref" : 12,
               "emergency" : "assembly_point",
               "assembly_point:earthquake" : "yes"
               }
    }
,
   {
      "id"  : 308,
      "lat" : 45.818578,
      "lon" : 13.336528,
      "tags" : {
               "name" : "Via Aquileia - Parcheggio fronte cimitero ex lidl",
               "ref" : 13,
               "emergency" : "assembly_point",
               "assembly_point:earthquake" : "yes"
               }
    }
,
   {
      "id"  : 309,
      "lat" : 45.820453,
      "lon" : 13.350172,
      "tags" : {
               "name" : "Parcheggio - Lancieri d'Aosta",
               "ref" : 14,
               "emergency" : "assembly_point",
               "assembly_point:earthquake" : "yes"
               }
    }
,
   {
      "id"  : 310,
      "lat" : 45.861458,
      "lon" : 13.324367,
      "tags" : {
               "name" : "Strassoldo-Parcheggio via Gradisca",
               "ref" : 15,
               "emergency" : "assembly_point",
               "assembly_point:earthquake" : "yes"
               }
    }
,
   {
      "id"  : 311,
      "lat" : 45.822756,
      "lon" : 13.34045,
      "tags" : {
               "name" : "Parcheggio Ex Casermette \"Papa Giovanni Paolo II\"",
               "ref" : 16,
               "emergency" : "assembly_point",
               "assembly_point:earthquake" : "yes"
               }
    }
,
   {
      "id"  : 312,
      "lat" : 45.825628,
      "lon" : 13.332922,
      "tags" : {
               "name" : "Cervignano parcheggio parco europa",
               "ref" : 17,
               "emergency" : "assembly_point",
               "assembly_point:earthquake" : "yes"
               }
    }
,
   {
      "id"  : 313,
      "lat" : 45.814167,
      "lon" : 13.340828,
      "tags" : {
               "name" : "Parcheggio Liceo Scientifico Albert Einstein",
               "ref" : 18,
               "emergency" : "assembly_point",
               "assembly_point:earthquake" : "yes"
               }
    }
,
   {
      "id"  : 314,
      "lat" : 45.815397,
      "lon" : 13.323586,
      "tags" : {
               "name" : "Parcheggio ecopiazzola Via Caiù",
               "ref" : 19,
               "emergency" : "assembly_point",
               "assembly_point:earthquake" : "yes"
               }
    }
,
   {
      "id"  : 315,
      "lat" : 45.808875,
      "lon" : 13.358364,
      "tags" : {
               "name" : "Parcheggio Penny Market - Via della Ferrovia Vecchia",
               "ref" : 20,
               "emergency" : "assembly_point",
               "assembly_point:earthquake" : "yes"
               }
    }
,
   {
      "id"  : 316,
      "lat" : 46.09245,
      "lon" : 13.380742,
      "tags" : {
               "name" : "Sede Comunale",
               "ref" : 1,
               "emergency" : "assembly_point",
               "assembly_point:earthquake" : "yes"
               }
    }
,
   {
      "id"  : 317,
      "lat" : 45.847428,
      "lon" : 12.629628,
      "tags" : {
               "name" : "Campo Sportivo Comunale \"Sergio Pase\"",
               "ref" : 1,
               "emergency" : "assembly_point",
               "assembly_point:earthquake" : "yes"
               }
    }
,
   {
      "id"  : 318,
      "lat" : 45.889278,
      "lon" : 12.612458,
      "tags" : {
               "name" : "Campo Sportivo Comunale di Visinale",
               "ref" : 2,
               "emergency" : "assembly_point",
               "assembly_point:earthquake" : "yes"
               }
    }
,
   {
      "id"  : 319,
      "lat" : 45.845403,
      "lon" : 12.578253,
      "tags" : {
               "name" : "Parcheggio Chiesa Rivarotta",
               "ref" : 3,
               "emergency" : "assembly_point",
               "assembly_point:earthquake" : "yes"
               }
    }
,
   {
      "id"  : 320,
      "lat" : 45.874442,
      "lon" : 12.612231,
      "tags" : {
               "name" : "Parcheggio Chiesa Cecchini",
               "ref" : 4,
               "emergency" : "assembly_point",
               "assembly_point:earthquake" : "yes"
               }
    }
,
   {
      "id"  : 321,
      "lat" : 45.849831,
      "lon" : 12.626581,
      "tags" : {
               "name" : "Piazza Alcide De Gasperi",
               "ref" : 5,
               "emergency" : "assembly_point",
               "assembly_point:earthquake" : "yes"
               }
    }
,
   {
      "id"  : 322,
      "lat" : 45.851219,
      "lon" : 12.627244,
      "tags" : {
               "name" : "Parcheggio Comune",
               "ref" : 6,
               "emergency" : "assembly_point",
               "assembly_point:earthquake" : "yes"
               }
    }
,
   {
      "id"  : 323,
      "lat" : 45.846356,
      "lon" : 12.61525,
      "tags" : {
               "name" : "Area Parcheggio Rist. Da Giorgio",
               "ref" : 7,
               "emergency" : "assembly_point",
               "assembly_point:earthquake" : "yes"
               }
    }
,
   {
      "id"  : 324,
      "lat" : 45.872411,
      "lon" : 12.609883,
      "tags" : {
               "name" : "Parcheggio Scuole Cecchini",
               "ref" : 8,
               "emergency" : "assembly_point",
               "assembly_point:earthquake" : "yes"
               }
    }
,
   {
      "id"  : 325,
      "lat" : 45.901567,
      "lon" : 12.609425,
      "tags" : {
               "name" : "Parcheggio Visinale di Sopra",
               "ref" : 9,
               "emergency" : "assembly_point",
               "assembly_point:earthquake" : "yes"
               }
    }
,
   {
      "id"  : 326,
      "lat" : 45.868906,
      "lon" : 12.648708,
      "tags" : {
               "name" : "Lottizzazione Borgo Sant'Anna",
               "ref" : 10,
               "emergency" : "assembly_point",
               "assembly_point:earthquake" : "yes"
               }
    }
,
   {
      "id"  : 327,
      "lat" : 45.820906,
      "lon" : 12.650225,
      "tags" : {
               "name" : "Parcheggio Chiesa Azzanello",
               "ref" : 11,
               "emergency" : "assembly_point",
               "assembly_point:earthquake" : "yes"
               }
    }
,
   {
      "id"  : 328,
      "lat" : 45.828419,
      "lon" : 12.589386,
