[
    {
      "id"  : 0,
      "lat" : 45.934975,
      "lon" : 13.252739,
      "tags" : {
               "name" : "Scuola dell'Infanzia Don Oreste Paviotti",
               "description" : "Bicinicco Via Regina Pacis 1",
               "isced:level" : "0",
               "ref" : "UDAA83201C",
               "amenity" : "kindergarten"
               }
    }
,
    {
      "id"  : 1,
      "lat" : 45.934519,
      "lon" : 13.251375,
      "tags" : {
               "name" : "Scuola Primaria Ezio Vanoni",
               "description" : "Bicinicco Via Roma 29",
               "isced:level" : "1",
               "ref" : "UDEE83202P",
               "amenity" : "school"
               }
    }
,
    {
      "id"  : 2,
      "lat" : 46.158317,
      "lon" : 13.532344,
      "tags" : {
               "name" : "Scuola Primaria di Savogna",
               "description" : "Savogna via Savogna",
               "isced:level" : "1",
               "amenity" : "school"
               }
    }
,
    {
      "id"  : 3,
      "lat" : 46.0758,
      "lon" : 12.778514,
      "tags" : {
               "name" : "Scuola Primaria Vivaro S. Domenico Savio",
               "description" : "Vivaro Via San Rocco 3",
               "isced:level" : "1",
               "ref" : "PNEE828045",
               "amenity" : "school"
               }
    }
,
    {
      "id"  : 4,
      "lat" : 46.110467,
      "lon" : 12.787667,
      "tags" : {
               "name" : "Scuola Secondaria di 1° grado di Vivaro",
               "description" : "Vivaro Via Vivaro 12",
               "isced:level" : "2",
               "ref" : "PNMM828022",
               "amenity" : "school"
               }
    }
,
    {
      "id"  : 5,
      "lat" : 46.077586,
      "lon" : 12.776939,
      "tags" : {
               "name" : "Scuola dell'Infanzia paritaria Gesu' Bambino",
               "description" : "Vivaro Via Garibaldi 8",
               "isced:level" : "0",
               "amenity" : "kindergarten"
               }
    }
,
    {
      "id"  : 6,
      "lat" : 46.111647,
      "lon" : 12.788483,
      "tags" : {
               "name" : "Scuola dell'Infanzia paritaria Lodovico De Angeli",
               "description" : "Tesis Via Vivaro 4",
               "isced:level" : "0",
               "amenity" : "kindergarten"
               }
    }
,
    {
      "id"  : 7,
      "lat" : 46.242706,
      "lon" : 13.155958,
      "tags" : {
               "name" : "Scuola Secondaria di 1° grado G. di Artegna",
               "description" : "Artegna Via Marnico 24",
               "isced:level" : "2",
               "ref" : "UDMM85302P",
               "amenity" : "school"
               }
    }
,
    {
      "id"  : 8,
      "lat" : 46.243928,
      "lon" : 13.155914,
      "tags" : {
               "name" : "Scuola Materna non statale Monsignor Castellani",
               "description" : "Artegna Via Montenars 24",
               "isced:level" : "0",
               "amenity" : "kindergarten"
               }
    }
,
    {
      "id"  : 9,
      "lat" : 46.242331,
      "lon" : 13.156033,
      "tags" : {
               "name" : "Scuola Primaria di Artegna",
               "description" : "Artegna Piazza Marnico",
               "isced:level" : "1",
               "amenity" : "school"
               }
    }
,
    {
      "id"  : 10,
      "lat" : 45.901444,
      "lon" : 12.531267,
      "tags" : {
               "name" : "Scuola Primaria Nazario Sauro",
               "description" : "Brughera Via Santissima Trinità 41",
               "isced:level" : "1",
               "amenity" : "school"
               }
    }
,
    {
      "id"  : 11,
      "lat" : 45.894736,
      "lon" : 12.557022,
      "tags" : {
               "name" : "Scuola Primaria Giuseppe Mazzini",
               "description" : "Maron Via Santarossa 15",
               "isced:level" : "1",
               "amenity" : "school"
               }
    }
,
    {
      "id"  : 12,
      "lat" : 45.925308,
      "lon" : 12.569361,
      "tags" : {
               "name" : "Scuola Primaria Sacilotto",
               "description" : "Tamai Via De Gasperi 1/bis",
               "isced:level" : "1",
               "amenity" : "school"
               }
    }
,
    {
      "id"  : 13,
      "lat" : 45.902603,
      "lon" : 12.531975,
      "tags" : {
               "name" : "Scuola Secondaria di 1° grado Antonio Canova",
               "description" : "Brugnera Via Galileo Galilei 5",
               "isced:level" : "2",
               "ref" : "PNMM82501D",
               "amenity" : "school"
               }
    }
,
    {
      "id"  : 14,
      "lat" : 45.902764,
      "lon" : 12.530203,
      "tags" : {
               "name" : "Scuola Secondaria di 2° grado di Brugnera - Ipsia",
               "description" : "Brugnera Via G. Galilei 7",
               "isced:level" : "3",
               "ref" : "PNTF00601Q",
               "amenity" : "school"
               }
    }
,
    {
      "id"  : 15,
      "lat" : 45.900106,
      "lon" : 12.523778,
      "tags" : {
               "name" : "Scuola Materna non statale Immacolata",
               "description" : "Brugnera Via Anna Maria Adorni 1",
               "isced:level" : "0",
               "amenity" : "kindergarten"
               }
    }
,
    {
      "id"  : 16,
      "lat" : 45.903581,
      "lon" : 12.531711,
      "tags" : {
               "name" : "Scuola dell'Infanzia di Brugnera",
               "isced:level" : "0",
               "amenity" : "kindergarten"
               }
    }
,
    {
      "id"  : 17,
      "lat" : 45.923072,
      "lon" : 12.571794,
      "tags" : {
               "name" : "Scuola Materna non statale elena Morozzo Della Rocca",
               "description" : "Tamai via Santa Margherita",
               "isced:level" : "0",
               "amenity" : "kindergarten"
               }
    }
,
    {
      "id"  : 18,
      "lat" : 46.527167,
      "lon" : 12.987078,
      "tags" : {
               "name" : "Scuola Primaria di Carcivento",
               "description" : "Località Cercivento di sotto Via di sot 4",
               "isced:level" : "1",
               "amenity" : "school"
               }
    }
,
    {
      "id"  : 19,
      "lat" : 46.405603,
      "lon" : 13.304275,
      "tags" : {
               "name" : "Scuola Primaria di Chiusaforte",
               "description" : "Casasola via Ruffi 1",
               "isced:level" : "1",
               "amenity" : "school"
               }
    }
,
    {
      "id"  : 20,
      "lat" : 46.405467,
      "lon" : 13.304275,
      "tags" : {
               "name" : "Scuola dell'Infanzia di Chiusaforte",
               "description" : "Casasola Via Ruffi",
               "isced:level" : "0",
               "amenity" : "kindergarten"
               }
    }
,
    {
      "id"  : 21,
      "lat" : 46.267944,
      "lon" : 12.517769,
      "tags" : {
               "name" : "Scuola Primaria Guglielmo Marconi",
               "description" : "Claut Viale Don Pietro Bortolotto 55/2",
               "isced:level" : "1",
               "amenity" : "school"
               }
    }
,
    {
      "id"  : 22,
      "lat" : 46.267558,
      "lon" : 12.519044,
      "tags" : {
               "name" : "Scuola Secondaria di 1° grado Giovanni Pascoli",
               "description" : "Claut Viale Don Pietro Bortolotto 59",
               "isced:level" : "2",
               "amenity" : "school"
               }
    }
,
    {
      "id"  : 23,
      "lat" : 46.267883,
      "lon" : 12.517931,
      "tags" : {
               "name" : "Scuola dell'Infanzia di Claut",
               "description" : "Claut Viale Don Pietro Bortolotto 55/1",
               "isced:level" : "0",
               "amenity" : "kindergarten"
               }
    }
,
    {
      "id"  : 24,
      "lat" : 46.264139,
      "lon" : 13.259006,
      "tags" : {
               "name" : "Scuola dell'Infanzia di Lusevera-vedronza",
               "description" : "Vedronza Fr. Vedronza 24",
               "isced:level" : "0",
               "amenity" : "kindergarten"
               }
    }
,
    {
      "id"  : 25,
      "lat" : 46.264044,
      "lon" : 13.259461,
      "tags" : {
               "name" : "Scuola Primaria di Lusevera-vedronza",
               "description" : "Vedronza Fr. Vedronza",
               "isced:level" : "1",
               "amenity" : "school"
               }
    }
,
    {
      "id"  : 26,
      "lat" : 45.862403,
      "lon" : 13.440533,
      "tags" : {
               "name" : "Scuola dell'Infanzia di Villesse",
               "description" : "Villesse via Diaz 14",
               "isced:level" : "0",
               "amenity" : "kindergarten"
               }
    }
,
    {
      "id"  : 27,
      "lat" : 45.861825,
      "lon" : 13.440297,
      "tags" : {
               "name" : "Scuola Primaria Giuseppe Mazzini",
               "description" : "Villesse via Diaz 12",
               "isced:level" : "1",
               "amenity" : "school"
               }
    }
,
    {
      "id"  : 28,
      "lat" : 45.646733,
      "lon" : 13.767289,
      "tags" : {
               "name" : "Scuola dell'Infanzia di Via Colonna",
               "description" : "Trieste Via Vittoria Colonna 1",
               "isced:level" : "0",
               "amenity" : "kindergarten"
               }
    }
,
    {
      "id"  : 29,
      "lat" : 45.652606,
      "lon" : 13.781583,
      "tags" : {
               "name" : "Scuola Primaria Ferruccio Dardi",
               "description" : "Trieste Via Giotto 2",
               "isced:level" : "1",
               "ref" : "TSAA813011",
               "amenity" : "school"
               }
    }
,
    {
      "id"  : 30,
      "lat" : 45.685644,
      "lon" : 13.788589,
      "tags" : {
               "name" : "Scuola dell'Infanzia Don E. Marzari",
               "description" : "Villa Opicina Piazzale Monte Re",
               "isced:level" : "0",
               "amenity" : "kindergarten"
               }
    }
,
    {
      "id"  : 31,
      "lat" : 45.681769,
      "lon" : 13.804144,
      "tags" : {
               "name" : "Scuola Secondaria di 1° grado Muzio De Tommasini - Succ. Banne",
               "description" : "Banne Strada di Basovizza 60",
               "isced:level" : "2",
               "amenity" : "school"
               }
    }
,
    {
      "id"  : 32,
      "lat" : 45.641217,
      "lon" : 13.860247,
      "tags" : {
               "name" : "Scuola dell'Infanzia Ubald Vrabec - Lingua Ins.Slovena",
               "description" : "Basovizza Via Gruden 34",
               "isced:level" : "0",
               "amenity" : "kindergarten"
               }
    }
,
    {
      "id"  : 33,
      "lat" : 45.690081,
      "lon" : 13.778989,
      "tags" : {
               "name" : "Scuola Primaria Carlo Lona",
               "description" : "Opicina Villa Carsia Via San Mauro 14",
               "isced:level" : "1",
               "amenity" : "school"
               }
    }
,
    {
      "id"  : 34,
      "lat" : 45.643436,
      "lon" : 13.777075,
      "tags" : {
               "name" : "Scuola Primaria Duca d'Aosta",
               "description" : "Trieste Via Vespucci 2",
               "isced:level" : "1",
               "ref" : "TSEE80903L",
               "amenity" : "school"
               }
    }
,
    {
      "id"  : 35,
      "lat" : 45.623089,
      "lon" : 13.7986,
      "tags" : {
               "name" : "Scuola Primaria Domenico Rossetti",
               "description" : "Sant'Anna Via Zandonai 4",
               "isced:level" : "1",
               "amenity" : "school"
               }
    }
,
    {
      "id"  : 36,
      "lat" : 45.638069,
      "lon" : 13.826694,
      "tags" : {
               "name" : "Scuola Secondaria di 1° grado Francesco Rismondo",
               "description" : "Trieste Via Forlanini 30",
               "isced:level" : "2",
               "amenity" : "school"
               }
    }
,
    {
      "id"  : 37,
      "lat" : 45.679567,
      "lon" : 13.757839,
      "tags" : {
               "name" : "Scuola dell'Infanzia di Via Vallicula",
               "description" : "Trieste Via Vallicula 11",
               "isced:level" : "0",
               "ref" : "TSAA817029",
               "amenity" : "kindergarten"
               }
    }
,
    {
      "id"  : 38,
      "lat" : 45.735569,
      "lon" : 13.689375,
      "tags" : {
               "name" : "Scuola Primaria di Santa Croce",
               "description" : "Santa Croce Santa Croce 442",
               "isced:level" : "1",
               "amenity" : "school"
               }
    }
,
    {
      "id"  : 39,
      "lat" : 45.706125,
      "lon" : 13.733542,
      "tags" : {
               "name" : "Scuola Primaria Giacomo Venezian",
               "description" : "Prosecco Località Prosecco 595",
               "isced:level" : "1",
               "amenity" : "school"
               }
    }
,
    {
      "id"  : 40,
      "lat" : 45.640992,
      "lon" : 13.830036,
      "tags" : {
               "name" : "Scuola dell'Infanzia di Longera",
               "description" : "Longera Strada per Longera 240",
               "isced:level" : "0",
               "amenity" : "kindergarten"
               }
    }
,
    {
      "id"  : 41,
      "lat" : 45.662647,
      "lon" : 13.843889,
      "tags" : {
               "name" : "Scuola Primaria Karel Destovnik Kajuh - Lingua Ins.Slovena",
               "description" : "Gropada Gropada 92",
               "isced:level" : "1",
               "amenity" : "school"
               }
    }
,
    {
      "id"  : 42,
      "lat" : 45.672764,
      "lon" : 13.825303,
      "tags" : {
               "name" : "Scuola dell'Infanzia Elvira Kralj - Lingua Ins.Slovena",
               "description" : "Trebiciano Località Trebiciano 30",
               "isced:level" : "0",
               "amenity" : "kindergarten"
               }
    }
,
    {
      "id"  : 43,
      "lat" : 45.626039,
      "lon" : 13.782161,
      "tags" : {
               "name" : "Scuola Primaria Ezio De Marchi",
               "description" : "Servola Salita Ezio De Marchi 8",
               "isced:level" : "1",
               "amenity" : "school"
               }
    }
,
    {
      "id"  : 44,
      "lat" : 45.622917,
      "lon" : 13.797481,
      "tags" : {
               "name" : "Scuola dell'Infanzia Jakob Ukman - Lingua Ins.Slovena",
               "description" : "Sant'Anna Vecchia dell'Istria 78",
               "isced:level" : "0",
               "amenity" : "kindergarten"
               }
    }
,
    {
      "id"  : 45,
      "lat" : 45.639431,
      "lon" : 13.765206,
      "tags" : {
               "name" : "Scuola Primaria Elio Morpurgo",
               "description" : "Trieste Scala Campi Elisi 4",
               "isced:level" : "1",
               "ref" : "TSEE81501T",
               "amenity" : "school"
               }
    }
,
    {
      "id"  : 46,
      "lat" : 45.647414,
      "lon" : 13.764478,
      "tags" : {
               "name" : "Scuola Secondaria di 2° grado Tomaso di Savoia Duca di Genova",
               "description" : "Trieste Piazza Attilio Hortis 1",
               "isced:level" : "3",
               "ref" : "TSIS00200T",
               "amenity" : "school"
               }
    }
,
    {
      "id"  : 47,
      "lat" : 45.643631,
      "lon" : 13.787633,
      "tags" : {
               "name" : "Scuola Primaria Umberto Gaspardis",
               "description" : "Trieste Via Casimiro Donadoni 28",
               "isced:level" : "1",
               "ref" : "TSEE80101X",
               "amenity" : "school"
               }
    }
,
    {
      "id"  : 48,
      "lat" : 45.648114,
      "lon" : 13.783006,
      "tags" : {
               "name" : "Scuola Primaria Anita Pittoni",
               "description" : "Trieste Via G. Vasari 23",
               "isced:level" : "1",
               "amenity" : "school"
               }
    }
,
    {
      "id"  : 49,
      "lat" : 45.651617,
      "lon" : 13.7917,
      "tags" : {
               "name" : "Scuola Primaria Aldo Padoa",
               "description" : "trieste Via Archi 4",
               "isced:level" : "1",
               "amenity" : "school"
               }
    }
,
    {
      "id"  : 50,
      "lat" : 45.686022,
      "lon" : 13.78855,
      "tags" : {
               "name" : "Scuola Primaria Attilio Degrassi",
               "description" : "Villa Opicina Piazzale Monte Re 2",
               "isced:level" : "1",
               "amenity" : "school"
               }
    }
,
    {
      "id"  : 51,
      "lat" : 45.640753,
      "lon" : 13.860539,
      "tags" : {
               "name" : "Scuola Primaria Primož Trubar - Lingua Ins.Slovena",
               "description" : "Basovizza Via Gruden 19",
               "isced:level" : "1",
               "amenity" : "school"
               }
    }
,
    {
      "id"  : 52,
      "lat" : 45.633392,
      "lon" : 13.784775,
      "tags" : {
               "name" : "Scuola Primaria San Giusto Martire",
               "description" : "Trieste Via Trissino 12",
               "isced:level" : "1",
               "ref" : "TSEE81003R",
               "amenity" : "school"
               }
    }
,
    {
      "id"  : 53,
      "lat" : 45.630697,
      "lon" : 13.780564,
      "tags" : {
               "name" : "Scuola Secondaria di 1° grado Italo Svevo",
               "description" : "Trieste Via Italo Svevo 15",
               "isced:level" : "2",
               "ref" : "TSEE81004T",
               "amenity" : "school"
               }
    }
,
    {
      "id"  : 54,
      "lat" : 45.639992,
      "lon" : 13.783914,
      "tags" : {
               "name" : "Scuola Primaria Scipio Slataper",
               "description" : "Trieste Via della Bastia 2",
               "isced:level" : "1",
               "ref" : "TSEE80901E",
               "amenity" : "school"
               }
    }
,
    {
      "id"  : 55,
      "lat" : 45.636714,
      "lon" : 13.796639,
      "tags" : {
               "name" : "Scuola Primaria Sergio Laghi",
               "description" : "Trieste Strada di Fiume 155",
               "isced:level" : "1",
               "ref" : "TSEE80301G",
               "amenity" : "school"
               }
    }
,
    {
      "id"  : 56,
      "lat" : 45.627117,
      "lon" : 13.791336,
      "tags" : {
               "name" : "Scuola Primaria Biagio Marin",
               "description" : "Sant'Anna Via Marco Praga 6",
               "isced:level" : "1",
               "amenity" : "school"
               }
    }
,
    {
      "id"  : 57,
      "lat" : 45.623308,
      "lon" : 13.806594,
      "tags" : {
               "name" : "Scuola Primaria Gabriele Foschiatti",
               "description" : "Piano di Sant'Anna Via Benussi 15",
               "isced:level" : "1",
               "amenity" : "school"
               }
    }
,
    {
      "id"  : 58,
      "lat" : 45.629858,
      "lon" : 13.818464,
      "tags" : {
               "name" : "Scuola Secondaria di 1° grado Giancarlo Roli - Succ. di Altura",
               "description" : "Trieste Via Alpi Giulie 23",
               "isced:level" : "2",
               "ref" : "TSEE807042",
               "amenity" : "school"
               }
    }
,
    {
      "id"  : 59,
      "lat" : 45.655419,
      "lon" : 13.790164,
      "tags" : {
               "name" : "Scuola Primaria Luigi Mauro",
               "description" : "Trieste Via dei Cunicoli 8",
               "isced:level" : "1",
               "amenity" : "school"
               }
    }
,
    {
      "id"  : 60,
      "lat" : 45.654097,
      "lon" : 13.801975,
      "tags" : {
               "name" : "Scuola Primaria Fabio Filzi - Attilio Grego",
               "description" : "Trieste Strada di Guardiella 9",
               "isced:level" : "1",
               "ref" : "TSEE81202B",
               "amenity" : "school"
               }
    }
,
    {
      "id"  : 61,
      "lat" : 45.645753,
      "lon" : 13.802075,
      "tags" : {
               "name" : "Scuola Primaria Carlo Collodi",
               "description" : "Trieste Via San Pasquale 95",
               "isced:level" : "1",
               "ref" : "TSEE80203T",
               "amenity" : "school"
               }
    }
,
    {
      "id"  : 62,
      "lat" : 45.665128,
      "lon" : 13.786258,
      "tags" : {
               "name" : "Scuola Primaria Vittorio Longo",
               "description" : "Cologna Via Commerciale 162",
               "isced:level" : "1",
               "amenity" : "school"
               }
    }
,
    {
      "id"  : 63,
      "lat" : 45.666422,
      "lon" : 13.771069,
      "tags" : {
               "name" : "Scuola Primaria Emo Tarabocchia",
               "description" : "Trieste Via dei Giacinti 7",
               "isced:level" : "1",
               "amenity" : "school"
               }
    }
,
    {
      "id"  : 64,
      "lat" : 45.680603,
      "lon" : 13.755669,
      "tags" : {
               "name" : "Scuola Primaria F. Saleski Finzgar - Lingua Ins.Slovena",
               "description" : "Barcola Via del Cerretto 19",
               "isced:level" : "1",
               "amenity" : "school"
               }
    }
,
    {
      "id"  : 65,
      "lat" : 45.706494,
      "lon" : 13.733103,
      "tags" : {
               "name" : "Scuola Primaria August Černigoj - Lingua Ins.Slovena",
               "description" : "Prosecco Località Prosecco 177",
               "isced:level" : "1",
               "amenity" : "school"
               }
    }
,
    {
      "id"  : 66,
      "lat" : 45.666961,
      "lon" : 13.765806,
      "tags" : {
               "name" : "Scuola Primaria Umberto Saba",
               "description" : "Gretta Salita di Gretta 34/2",
               "isced:level" : "1",
               "amenity" : "school"
               }
    }
,
    {
      "id"  : 67,
      "lat" : 45.636086,
      "lon" : 13.8316,
      "tags" : {
               "name" : "Scuola Primaria Fran Milcinski - Lingua Ins.Slovena",
               "description" : "Trieste Via Marchetti 16",
               "isced:level" : "1",
               "amenity" : "school"
               }
    }
,
    {
      "id"  : 68,
      "lat" : 45.671839,
      "lon" : 13.825514,
      "tags" : {
               "name" : "Scuola Primaria Pinko Tomažič - Lingua Ins.Slovena",
               "description" : "Trebiciano Località Trebiciano 33",
               "isced:level" : "1",
               "amenity" : "school"
               }
    }
,
    {
      "id"  : 69,
      "lat" : 45.732956,
      "lon" : 13.691625,
      "tags" : {
               "name" : "Scuola Primaria Albert Sirk - Lingua Ins.Slovena",
               "description" : "Santa Croce Località Santa Croce 217",
               "isced:level" : "1",
               "amenity" : "school"
               }
    }
,
    {
      "id"  : 70,
      "lat" : 45.654458,
      "lon" : 13.777394,
      "tags" : {
               "name" : "Scuola Secondaria di 2° grado Dante Alighieri",
               "description" : "Trieste Via Giustiniano 3",
               "isced:level" : "3",
               "ref" : "TSPM004011",
               "amenity" : "school"
               }
    }
,
    {
      "id"  : 71,
      "lat" : 45.652878,
      "lon" : 13.781233,
      "tags" : {
               "name" : "Scuola Secondaria di 2° grado Galileo Galilei - Succ. Via Battisti",
               "description" : "Trieste Via Cesare Battisti 27",
               "isced:level" : "3",
               "ref" : "TSMM042005",
               "amenity" : "school"
               }
    }
,
    {
      "id"  : 72,
      "lat" : 45.638789,
      "lon" : 13.764256,
      "tags" : {
               "name" : "Scuola Secondaria di 1° grado Lionello Stock",
               "description" : "Trieste Via G.R. Carli 1",
               "isced:level" : "2",
               "ref" : "TSMM81501R",
               "amenity" : "school"
               }
    }
,
    {
      "id"  : 73,
      "lat" : 45.657361,
      "lon" : 13.77635,
      "tags" : {
               "name" : "Scuola Secondaria di 1° grado Guido Corsi",
               "description" : "Trieste Via Sant'Anastasio 15",
               "isced:level" : "2",
               "amenity" : "school"
               }
    }
,
    {
      "id"  : 74,
      "lat" : 45.638908,
      "lon" : 13.783858,
      "tags" : {
               "name" : "Scuola Secondaria di 1° grado Antonio Bergamas",
               "description" : "Trieste Via dell'Istria 45",
               "isced:level" : "2",
               "amenity" : "school"
               }
    }
,
    {
      "id"  : 75,
      "lat" : 45.6469,
      "lon" : 13.78275,
      "tags" : {
               "name" : "Scuola Secondaria di 1° grado F.Lli Fonda Savio - Alessandro Manzoni",
               "description" : "Trieste Via G. Pascoli 14",
               "isced:level" : "2",
               "ref" : "TSMM80101V",
               "amenity" : "school"
               }
    }
,
    {
      "id"  : 76,
      "lat" : 45.654247,
      "lon" : 13.797389,
      "tags" : {
               "name" : "Scuola Secondaria di 1° grado Mario Codermatz",
               "description" : "Rotonda del Boschetto Via Pindemonte 11",
               "isced:level" : "2",
               "amenity" : "school"
               }
    }
,
    {
      "id"  : 77,
      "lat" : 45.625181,
      "lon" : 13.797075,
      "tags" : {
               "name" : "Scuola Secondaria di 1° grado Giuseppe Caprin",
               "description" : "Sant'Anna Salita Zugnano 5",
               "isced:level" : "2",
               "amenity" : "school"
               }
    }
,
    {
      "id"  : 78,
      "lat" : 45.618939,
      "lon" : 13.82225,
      "tags" : {
               "name" : "Scuola Secondaria di 1° grado Giancarlo Roli",
               "description" : "Borgo San Sergio Via Forti 15",
               "isced:level" : "2",
               "amenity" : "school"
               }
    }
,
    {
      "id"  : 79,
      "lat" : 45.687739,
      "lon" : 13.791547,
      "tags" : {
               "name" : "Scuola Secondaria di 1° grado Muzio De Tommasini",
               "description" : "Opicina Via Basovizza 5",
               "isced:level" : "2",
               "amenity" : "school"
               }
    }
,
    {
      "id"  : 80,
      "lat" : 45.655592,
      "lon" : 13.774861,
      "tags" : {
               "name" : "Scuola Secondaria di 2° grado Giuseppe Tartini",
               "description" : "Trieste Via Carlo Ghega 12",
               "isced:level" : "3",
               "amenity" : "school"
               }
    }
,
    {
      "id"  : 81,
      "lat" : 45.644142,
      "lon" : 13.790806,
      "tags" : {
               "name" : "Scuola Secondaria di 2° grado Francesco Petrarca",
               "description" : "Trieste Via Rossetti 74",
               "isced:level" : "3",
               "amenity" : "school"
               }
    }
,
    {
      "id"  : 82,
      "lat" : 45.653792,
      "lon" : 13.804514,
      "tags" : {
               "name" : "Scuola Secondaria di 2° grado Ziga Zois - Lingua Ins. Slovena",
               "description" : "San Giovanni Via di Guardiella 13/2",
               "isced:level" : "3",
               "amenity" : "school"
               }
    }
,
    {
      "id"  : 83,
      "lat" : 45.644414,
      "lon" : 13.791864,
      "tags" : {
               "name" : "Scuola Secondaria di 2° grado Galileo Galilei",
               "description" : "Trieste Via Mameli 4",
               "isced:level" : "3",
               "amenity" : "school"
               }
    }
,
    {
      "id"  : 84,
      "lat" : 45.650936,
      "lon" : 13.786481,
      "tags" : {
               "name" : "Scuola Secondaria di 2° grado Galileo Galilei - Succ. Via Della Ginnastica",
               "description" : "Trieste Via Ginnastica 53",
               "isced:level" : "3",
               "amenity" : "school"
               }
    }
,
    {
      "id"  : 85,
      "lat" : 45.643594,
      "lon" : 13.775711,
      "tags" : {
               "name" : "Scuola Secondaria di 2° grado Guglielmo Oberdan",
               "description" : "Trieste Via Paolo Veronese 1",
               "isced:level" : "3",
               "ref" : "TSPS03000B",
               "amenity" : "school"
               }
    }
,
    {
      "id"  : 86,
      "lat" : 45.6343,
      "lon" : 13.804192,
      "tags" : {
               "name" : "Scuola Secondaria di 2° grado Luigi Galvani",
               "description" : "Trieste Via delle Campanelle 266",
               "isced:level" : "3",
               "amenity" : "school"
               }
    }
,
    {
      "id"  : 87,
      "lat" : 45.644283,
      "lon" : 13.774672,
      "tags" : {
               "name" : "Scuola Secondaria di 2° grado Guglielmo Oberdan - Succ. Via Besenghi",
               "description" : "Trieste Via Besenghi 13",
               "isced:level" : "3",
               "amenity" : "school"
               }
    }
,
    {
      "id"  : 88,
      "lat" : 45.657908,
      "lon" : 13.801817,
      "tags" : {
               "name" : "Scuola Secondaria di 2° grado Ziga Zois - Lingua Ins. Slovena - Succ. Piazzale Canestrini",
               "description" : "Trieste Piazzale Canestrini 7",
               "isced:level" : "3",
               "amenity" : "school"
               }
    }
,
    {
      "id"  : 89,
      "lat" : 45.657506,
      "lon" : 13.806469,
      "tags" : {
               "name" : "Scuola Secondaria di 2° grado Jozef Stefan - Lingua Ins.Slovena - Succ. Via Caravaggio",
               "description" : "Trieste Via Caravaggio 4",
               "isced:level" : "3",
               "ref" : "TSPM02000T",
               "amenity" : "school"
               }
    }
,
    {
      "id"  : 90,
      "lat" : 45.640611,
      "lon" : 13.770503,
      "tags" : {
               "name" : "Scuola Secondaria di 2° grado Enrico E Umberto Nordio",
               "description" : "Trieste Via di Calvola 2",
               "isced:level" : "3",
               "ref" : "TSSD010502",
               "amenity" : "school"
               }
    }
,
    {
      "id"  : 91,
      "lat" : 45.6493,
      "lon" : 13.770633,
      "tags" : {
               "name" : "Scuola Secondaria di 2° grado Gian Rinaldo Carli - Suvv. Via Del Teatro Romano",
               "description" : "Trieste Via del teatro Romano 7",
               "isced:level" : "3",
               "amenity" : "school"
               }
    }
,
    {
      "id"  : 92,
      "lat" : 45.644869,
      "lon" : 13.782267,
      "tags" : {
               "name" : "Scuola Secondaria di 2° grado Francesco Petrarca - Succ. L.Go S.G. Sonnino",
               "description" : "Trieste Largo Sonnino 3",
               "isced:level" : "3",
               "amenity" : "school"
               }
    }
,
    {
      "id"  : 93,
      "lat" : 45.643125,
      "lon" : 13.774961,
      "tags" : {
               "name" : "Scuola Secondaria di 2° grado Leonardo Da Vinci - Scipione De Sandrinelli",
               "description" : "Trieste Via Paolo Veronese 3",
               "isced:level" : "3",
               "ref" : "TSTD001018",
               "amenity" : "school"
               }
    }
,
    {
      "id"  : 94,
      "lat" : 45.654553,
      "lon" : 13.781275,
      "tags" : {
               "name" : "Scuola Secondaria di 2° grado Grazia Deledda",
               "description" : "Trieste Via Rismondo 8/10",
               "isced:level" : "3",
               "amenity" : "school"
               }
    }
,
    {
      "id"  : 95,
      "lat" : 45.659342,
      "lon" : 13.788,
      "tags" : {
               "name" : "Scuola Secondaria di 2° grado Alessandro Volta",
               "description" : "Trieste Via Monte Grappa 1",
               "isced:level" : "3",
               "ref" : "TSTF01050N",
               "amenity" : "school"
               }
    }
,
    {
      "id"  : 96,
      "lat" : 45.661156,
      "lon" : 13.786894,
      "tags" : {
               "name" : "Scuola Secondaria di 2° grado Max Fabiani",
               "description" : "Trieste Via Monte San Gabriele 48",
               "isced:level" : "3",
               "ref" : "TSTE03000P",
               "amenity" : "school"
               }
    }
,
    {
      "id"  : 97,
      "lat" : 45.647031,
      "lon" : 13.767244,
      "tags" : {
               "name" : "Scuola Secondaria di 2° grado Giosuè Carducci",
               "description" : "Trieste Via Madonna del Mare 11",
               "isced:level" : "3",
               "amenity" : "school"
               }
    }
,
    {
      "id"  : 98,
      "lat" : 45.654542,
      "lon" : 13.771958,
      "tags" : {
               "name" : "Scuola Secondaria di 2° grado Giosuè Carducci - Succ. Via Corsi",
               "description" : "Trieste Via Guido Corsi 1",
               "isced:level" : "3",
               "ref" : "TSPM004011",
               "amenity" : "school"
               }
    }
,
    {
      "id"  : 99,
      "lat" : 45.654381,
      "lon" : 13.776942,
      "tags" : {
               "name" : "Scuola Secondaria di 1° grado Dante Alighieri",
               "description" : "Trieste Via Giustiniano 7",
               "isced:level" : "2",
               "ref" : "TSPC00401R",
               "amenity" : "school"
               }
    }
,
    {
      "id"  : 100,
      "lat" : 45.628075,
      "lon" : 13.818372,
      "tags" : {
               "name" : "Scuola dell'Infanzia di Altura",
               "description" : "Trieste Via Monte Peralba 19",
               "isced:level" : "0",
               "ref" : "TSAA80704R",
               "amenity" : "kindergarten"
               }
    }
,
    {
      "id"  : 101,
      "lat" : 45.627747,
      "lon" : 13.804439,
      "tags" : {
               "name" : "Scuola Primaria Gianni Rodari",
               "description" : "Trieste Via Pagano 8",
               "isced:level" : "1",
               "ref" : "TSEE81103L",
               "amenity" : "school"
               }
    }
,
    {
      "id"  : 102,
      "lat" : 45.652539,
      "lon" : 13.782333,
      "tags" : {
               "name" : "Scuola Secondaria di 2° grado Grazia Deledda",
               "description" : "Trieste Via Gatteri 4",
               "isced:level" : "3",
               "amenity" : "school"
               }
    }
,
    {
      "id"  : 103,
      "lat" : 45.655675,
      "lon" : 13.788619,
      "tags" : {
               "name" : "Scuola Primaria Claudio Suvic",
               "description" : "Trieste Via Kandler 10",
               "isced:level" : "1",
               "ref" : "TSEE81201A",
               "amenity" : "school"
               }
    }
,
    {
      "id"  : 104,
      "lat" : 45.649228,
      "lon" : 13.754953,
      "tags" : {
               "name" : "Scuola Secondaria di 2° grado Tomaso di Savoia Duca di Genova - Stazione A Mare",
               "description" : "Trieste Molo Fratelli Bandiera",
               "isced:level" : "3",
               "amenity" : "school"
               }
    }
,
    {
      "id"  : 105,
      "lat" : 45.660697,
      "lon" : 13.786803,
      "tags" : {
               "name" : "Scuola Secondaria di 2° grado Grazia Deledda",
               "description" : "Trieste Via Cesare Cantù 42",
               "isced:level" : "3",
               "amenity" : "school"
               }
    }
,
    {
      "id"  : 106,
      "lat" : 45.634642,
      "lon" : 13.829358,
      "tags" : {
               "name" : "Scuola Secondaria di 1° grado Cirillo E Metodio - Lingua Ins. Slovena - Succ. Cattinara",
               "description" : "Trieste Strada di Fiume 511",
               "isced:level" : "2",
               "ref" : "TSMM81701C",
               "amenity" : "school"
               }
    }
,
    {
      "id"  : 107,
      "lat" : 45.665881,
      "lon" : 13.770836,
      "tags" : {
               "name" : "Scuola Secondaria di 1° grado Giuseppe Brunner",
               "description" : "Trieste Via delle Ginestre 1",
               "isced:level" : "2",
               "amenity" : "school"
               }
    }
,
    {
      "id"  : 108,
      "lat" : 45.705922,
      "lon" : 13.733356,
      "tags" : {
               "name" : "Scuola Secondaria di 1° grado Muzio De Tommasini - Succ. Prosecco",
               "description" : "Prosecco Località Prosecco 595",
               "isced:level" : "2",
               "amenity" : "school"
               }
    }
,
    {
      "id"  : 109,
      "lat" : 45.641642,
      "lon" : 13.8063,
      "tags" : {
               "name" : "Scuola Secondaria di 1° grado Carlo Stuparich",
               "description" : "Trieste Via di Rozzol 61",
               "isced:level" : "2",
               "amenity" : "school"
               }
    }
,
    {
      "id"  : 110,
      "lat" : 45.667614,
      "lon" : 13.764714,
      "tags" : {
               "name" : "Scuola Secondaria di 1° grado Pietro Addobbati",
               "description" : "Trieste Salita di Gretta 34/5",
               "isced:level" : "2",
               "amenity" : "school"
               }
    }
,
    {
      "id"  : 111,
      "lat" : 45.644028,
      "lon" : 13.777975,
      "tags" : {
               "name" : "Scuola Secondaria di 1° grado Ivan Cancar - Lingua Ins. Slovena",
               "description" : "Trieste Via Frausin 12",
               "isced:level" : "2",
               "ref" : "TSEE81601N",
               "amenity" : "school"
               }
    }
,
    {
      "id"  : 112,
      "lat" : 45.657775,
      "lon" : 13.802161,
      "tags" : {
               "name" : "Scuola Secondaria di 2° grado Jozef Stefan",
               "description" : "San Giovanni Piazzale Canestrini 7",
               "isced:level" : "3",
               "amenity" : "school"
               }
    }
,
    {
      "id"  : 113,
      "lat" : 45.653928,
      "lon" : 13.804114,
      "tags" : {
               "name" : "Scuola Secondaria di 2° grado France Preseren - Lingua Ins. Slovena",
               "description" : "San Giovanni Via di Guardiella 13/1",
               "isced:level" : "3",
               "amenity" : "school"
               }
    }
,
    {
      "id"  : 114,
      "lat" : 45.706883,
      "lon" : 13.732492,
      "tags" : {
               "name" : "Scuola dell'Infanzia di Prosecco",
               "description" : "Prosecco (TS) Località Prosecco, 185",
               "isced:level" : "0",
               "amenity" : "kindergarten"
               }
    }
,
    {
      "id"  : 115,
      "lat" : 45.735458,
      "lon" : 13.689653,
      "tags" : {
               "name" : "Scuola dell'Infanzia di Santa Croce",
               "description" : "Santa Croce Santa Croce 442",
               "isced:level" : "0",
               "amenity" : "kindergarten"
               }
    }
,
    {
      "id"  : 116,
      "lat" : 45.623381,
      "lon" : 13.805733,
      "tags" : {
               "name" : "Scuola dell'Infanzia Comunale Azzurra",
               "description" : "Trieste via Puccini 63",
               "isced:level" : "0",
               "amenity" : "kindergarten"
               }
    }
,
    {
      "id"  : 117,
      "lat" : 45.625489,
      "lon" : 13.787528,
      "tags" : {
               "name" : "Scuola dell'Infanzia Comunale Borgo Felice",
               "description" : "Trieste via del Pane Bianco 1",
               "isced:level" : "0",
               "amenity" : "kindergarten"
               }
    }
,
    {
      "id"  : 118,
      "lat" : 45.681639,
      "lon" : 13.804219,
      "tags" : {
               "name" : "Scuola Primaria Julus Kugy",
               "description" : "Banne Via di Basovizza, 60",
               "isced:level" : "1",
               "amenity" : "school"
               }
    }
,
    {
      "id"  : 119,
      "lat" : 45.681783,
      "lon" : 13.803922,
      "tags" : {
               "name" : "Scuola dell'Infanzia Silvio Rutteri",
               "description" : "Banne Via di Basovizza, 60",
               "isced:level" : "0",
               "amenity" : "kindergarten"
               }
    }
,
    {
      "id"  : 120,
      "lat" : 45.689911,
      "lon" : 13.779025,
      "tags" : {
               "name" : "Scuola dell'Infanzia Marcello Fraulini a",
               "description" : "Opicina Villa Carsia Via San Mauro 14",
               "isced:level" : "0",
               "amenity" : "kindergarten"
               }
    }
,
    {
      "id"  : 121,
      "lat" : 45.690667,
      "lon" : 13.777239,
      "tags" : {
               "name" : "Scuola dell'Infanzia Marcello Fraulini b",
               "description" : "Opicina Villa Carsia Largo San Tommaso 17",
               "isced:level" : "0",
               "amenity" : "kindergarten"
               }
    }
,
    {
      "id"  : 122,
      "lat" : 45.64115,
      "lon" : 13.860436,
      "tags" : {
               "name" : "Scuola dell'Infanzia Antonio Illersberg",
               "description" : "Basovizza Via Gruden 34",
               "isced:level" : "0",
               "amenity" : "kindergarten"
               }
    }
,
    {
      "id"  : 123,
      "lat" : 45.657036,
      "lon" : 13.775897,
      "tags" : {
               "name" : "Scuola Primaria Ruggero Manna",
               "description" : "Trieste Via Ruggero Manna 5/7",
               "isced:level" : "1",
               "amenity" : "school"
               }
    }
,
    {
      "id"  : 124,
      "lat" : 45.665889,
      "lon" : 13.786044,
      "tags" : {
               "name" : "Scuola dell'Infanzia Fulvio Tomizza",
               "description" : "Cologna Via Commerciale 164",
               "isced:level" : "0",
               "amenity" : "kindergarten"
               }
    }
,
    {
      "id"  : 125,
      "lat" : 45.651958,
      "lon" : 13.775519,
      "tags" : {
               "name" : "Scuola dell'Infanzia Ruggero Manna",
               "description" : "Trieste Via Ruggero Manna 5/7",
               "isced:level" : "0",
               "amenity" : "kindergarten"
               }
    }
,
    {
      "id"  : 126,
      "lat" : 45.652317,
      "lon" : 13.781914,
      "tags" : {
               "name" : "Scuola Secondaria di 1° grado Divisione Julia",
               "description" : "Trieste Viale XX Settembre 26",
               "isced:level" : "2",
               "amenity" : "school"
               }
    }
,
    {
      "id"  : 127,
      "lat" : 45.652642,
      "lon" : 13.781219,
      "tags" : {
               "name" : "Scuola dell'Infanzia Miela Reina",
               "description" : "Trieste Via Ugo Polonio 4",
               "isced:level" : "0",
               "amenity" : "kindergarten"
               }
    }
,
    {
      "id"  : 128,
      "lat" : 45.655481,
      "lon" : 13.788669,
      "tags" : {
               "name" : "Scuola dell'Infanzia di Via Pietro Kandler",
               "description" : "Trieste Via Pietro Kandler 10",
               "isced:level" : "0",
               "amenity" : "kindergarten"
               }
    }
,
    {
      "id"  : 129,
      "lat" : 45.654211,
      "lon" : 13.801764,
      "tags" : {
               "name" : "Scuola dell'Infanzia Fabio Filzi - Attilio Grego",
               "description" : "Trieste Strada di Guardiella 9",
               "isced:level" : "0",
               "ref" : "TSEE81202B",
               "amenity" : "kindergarten"
               }
    }
,
    {
      "id"  : 130,
      "lat" : 45.641686,
      "lon" : 13.805875,
      "tags" : {
               "name" : "Scuola Primaria Virgilio Giotti",
               "description" : "Trieste Via di Rozzol 61",
               "isced:level" : "1",
               "amenity" : "school"
               }
    }
,
    {
      "id"  : 131,
      "lat" : 45.638344,
      "lon" : 13.826364,
      "tags" : {
               "name" : "Scuola Primaria Sandro Pertini",
               "description" : "Trieste Via Forlanini 30",
               "isced:level" : "1",
               "amenity" : "school"
               }
    }
,
    {
      "id"  : 132,
      "lat" : 45.638036,
      "lon" : 13.827167,
      "tags" : {
               "name" : "Scuola dell'Infanzia di Melara",
               "description" : "Trieste Via Forlanini 30",
               "isced:level" : "0",
               "amenity" : "kindergarten"
               }
    }
,
    {
      "id"  : 133,
      "lat" : 45.636925,
      "lon" : 13.79685,
      "tags" : {
               "name" : "Scuola dell'Infanzia Sergio Laghi",
               "description" : "Trieste Strada di Fiume 155",
               "isced:level" : "0",
               "ref" : "TSEE80301G",
               "amenity" : "kindergarten"
               }
    }
,
    {
      "id"  : 134,
      "lat" : 45.630386,
      "lon" : 13.780667,
      "tags" : {
               "name" : "Scuola Primaria Domenico Lovisato",
               "description" : "Trieste Via Italo Svevo 15",
               "isced:level" : "1",
               "ref" : "TSEE81004T",
               "amenity" : "school"
               }
    }
,
    {
      "id"  : 135,
      "lat" : 45.622967,
      "lon" : 13.798467,
      "tags" : {
               "name" : "Scuola dell'Infanzia Bruno Munari",
               "description" : "Sant'Anna Via Zandonai 4",
               "isced:level" : "0",
               "amenity" : "kindergarten"
               }
    }
,
    {
      "id"  : 136,
      "lat" : 45.627536,
      "lon" : 13.804794,
      "tags" : {
               "name" : "Scuola dell'Infanzia Jean Piaget",
               "description" : "Trieste Via Pagano 8",
               "isced:level" : "0",
               "ref" : "TSEE81103L",
               "amenity" : "kindergarten"
               }
    }
,
    {
      "id"  : 137,
      "lat" : 45.629792,
      "lon" : 13.818217,
      "tags" : {
               "name" : "Scuola Primaria Don Luigi Milani",
               "description" : "Trieste Via Alpi Giulie 23",
               "isced:level" : "1",
               "ref" : "TSEE807042",
               "amenity" : "school"
               }
    }
,
    {
      "id"  : 138,
      "lat" : 45.619114,
      "lon" : 13.822514,
      "tags" : {
               "name" : "Scuola Primaria F.Lli Visinitini",
               "description" : "Borgo San Sergio Via Forti 15",
               "isced:level" : "1",
               "amenity" : "school"
               }
    }
,
    {
      "id"  : 139,
      "lat" : 45.646881,
      "lon" : 13.767408,
      "tags" : {
               "name" : "Scuola Primaria Nazario Sauro",
               "description" : "Trieste Via Tigor 3",
               "isced:level" : "1",
               "ref" : "TSAA80801D",
               "amenity" : "school"
               }
    }
,
    {
      "id"  : 140,
      "lat" : 45.644317,
      "lon" : 13.774878,
      "tags" : {
               "name" : "Scuola dell'Infanzia Duca d'Aosta",
               "description" : "Trieste Via Besenghi 13",
               "isced:level" : "0",
               "amenity" : "kindergarten"
               }
    }
,
    {
      "id"  : 141,
      "lat" : 45.685867,
      "lon" : 13.788489,
      "tags" : {
               "name" : "Scuola Primaria France Bevk - Lingua Ins.Slovena",
               "description" : "Opicina Piazzale Monte Re 2",
               "isced:level" : "1",
               "amenity" : "school"
               }
    }
,
    {
      "id"  : 142,
      "lat" : 45.68545,
      "lon" : 13.788467,
      "tags" : {
               "name" : "Scuola dell'Infanzia Andrej Čok - Lingua Ins.Slovena",
               "description" : "Opicina Piazzale Monte Re 2",
               "isced:level" : "0",
               "amenity" : "kindergarten"
               }
    }
,
    {
      "id"  : 143,
      "lat" : 45.706806,
      "lon" : 13.732714,
      "tags" : {
               "name" : "Scuola dell'Infanzia Marjan Štoka - Lingua Ins.Slovena",
               "description" : "Prosecco Località Prosecco 185",
               "isced:level" : "0",
               "amenity" : "kindergarten"
               }
    }
,
    {
      "id"  : 144,
      "lat" : 45.735536,
      "lon" : 13.689022,
      "tags" : {
               "name" : "Scuola dell'Infanzia Just Košuta - Lingua Ins.Slovena",
               "description" : "Santa Croce Santa Croce 442",
               "isced:level" : "0",
               "amenity" : "kindergarten"
               }
    }
,
    {
      "id"  : 145,
      "lat" : 45.662539,
      "lon" : 13.843961,
      "tags" : {
               "name" : "Scuola dell'Infanzia di Gropada - Lingua Ins.Slovena",
               "description" : "Gropada Gropada 92",
               "isced:level" : "0",
               "amenity" : "kindergarten"
               }
    }
,
    {
      "id"  : 146,
      "lat" : 45.643914,
      "lon" : 13.778028,
      "tags" : {
               "name" : "Scuola Primaria Josip Ribicic - Lingua Ins.Slovena",
               "description" : "Trieste Via Frausin 12-14",
               "isced:level" : "1",
               "amenity" : "school"
               }
    }
,
    {
      "id"  : 147,
      "lat" : 45.643808,
      "lon" : 13.778086,
      "tags" : {
               "name" : "Scuola dell'Infanzia di San Giacomo - Lingua Ins.Slovena",
               "description" : "Trieste Via Frausin 12-14",
               "isced:level" : "0",
               "amenity" : "kindergarten"
               }
    }
,
    {
      "id"  : 148,
      "lat" : 45.627219,
      "lon" : 13.783294,
      "tags" : {
               "name" : "Scuola Primaria Marica Grigoric-stepancic - Lingua Ins.Slovena",
               "description" : "Servola Salita De Marchi 8",
               "isced:level" : "1",
               "amenity" : "school"
               }
    }
,
    {
      "id"  : 149,
      "lat" : 45.627136,
      "lon" : 13.783264,
      "tags" : {
               "name" : "Scuola dell'Infanzia di Servola - Lingua Ins.Slovena",
               "description" : "Servola Salita De Marchi 8",
               "isced:level" : "0",
               "amenity" : "kindergarten"
               }
    }
,
    {
      "id"  : 150,
      "lat" : 45.627061,
      "lon" : 13.783225,
      "tags" : {
               "name" : "Scuola Primaria Ivan Grbec - Lingua Ins.Slovena",
               "description" : "Servola Salita De Marchi 8",
               "isced:level" : "1",
               "amenity" : "school"
               }
    }
,
    {
      "id"  : 151,
      "lat" : 45.657208,
      "lon" : 13.80575,
      "tags" : {
               "name" : "Scuola Secondaria di 1° grado Cirillo E Metodio - Lingua Ins. Slovena",
               "description" : "San Giovanni Via Caravaggio 4",
               "isced:level" : "2",
               "amenity" : "school"
               }
    }
,
    {
      "id"  : 152,
      "lat" : 45.657389,
      "lon" : 13.805944,
      "tags" : {
               "name" : "Scuola Primaria Oton Zupancic - Lingua Ins.Slovena",
               "description" : "San Giovanni Via Caravaggio 4",
               "isced:level" : "1",
               "amenity" : "school"
               }
    }
,
    {
      "id"  : 153,
      "lat" : 45.679464,
      "lon" : 13.757864,
      "tags" : {
               "name" : "Scuola dell'Infanzia di Barcola - Lingua Ins.Slovena",
               "description" : "Barcola Via Vallicula 11",
               "isced:level" : "0",
               "amenity" : "kindergarten"
               }
    }
,
    {
      "id"  : 154,
      "lat" : 45.640919,
      "lon" : 13.830133,
      "tags" : {
               "name" : "Scuola dell'Infanzia di Longera - Lingua Ins.Slovena",
               "description" : "Longera Strada per Longera 240",
               "isced:level" : "0",
               "amenity" : "kindergarten"
               }
    }
,
    {
      "id"  : 155,
      "lat" : 45.647656,
      "lon" : 13.764158,
      "tags" : {
               "name" : "Scuola Secondaria di 2° grado Gian Rinaldo Carli",
               "description" : "Trieste Via Diaz 20",
               "isced:level" : "3",
               "amenity" : "school"
               }
    }
,
    {
      "id"  : 156,
      "lat" : 45.645281,
      "lon" : 13.782278,
      "tags" : {
               "name" : "Scuola Secondaria di 2° grado Tomaso di Savoia Duca di Genova - Succ. Via Gambini",
               "description" : "Trieste Via Pio Riego Gambini 1",
               "isced:level" : "3",
               "amenity" : "school"
               }
    }
,
    {
      "id"  : 157,
      "lat" : 45.652936,
      "lon" : 13.781372,
      "tags" : {
               "name" : "Scuola Secondaria di 2° grado Alessandro Volta - Succ. Via Battisti (corsi Serali)",
               "description" : "Trieste Via Cesare Battisti 27",
               "isced:level" : "3",
               "ref" : "TSMM042005",
               "amenity" : "school"
               }
    }
,
    {
      "id"  : 158,
      "lat" : 45.657422,
      "lon" : 13.806586,
      "tags" : {
               "name" : "Scuola Secondaria di 2° grado Martin Slomsek - Lingua Ins. Slovena",
               "description" : "Trieste Via Caravaggio 4",
               "isced:level" : "3",
               "ref" : "TSPM02000T",
               "amenity" : "school"
               }
    }
,
    {
      "id"  : 159,
      "lat" : 45.641469,
      "lon" : 13.806678,
      "tags" : {
               "name" : "Scuola dell'Infanzia Comunale Stuparich",
               "description" : "Trieste Via di Rozzol 61",
               "isced:level" : "0",
               "amenity" : "kindergarten"
               }
    }
,
    {
      "id"  : 160,
      "lat" : 45.641325,
      "lon" : 13.807661,
      "tags" : {
               "name" : "Scuola dell'Infanzia Comunale Casetta Incantata",
               "description" : "Trieste Via di Rozzol 61/1",
               "isced:level" : "0",
               "amenity" : "kindergarten"
               }
    }
,
    {
      "id"  : 161,
      "lat" : 45.643428,
      "lon" : 13.787928,
      "tags" : {
               "name" : "Scuola dell'Infanzia Comunale Cuccioli",
               "description" : "Trieste Via Vittorino da Feltre 8",
               "isced:level" : "0",
               "amenity" : "kindergarten"
               }
    }
,
    {
      "id"  : 162,
      "lat" : 45.647961,
      "lon" : 13.78275,
      "tags" : {
               "name" : "Scuola dell'Infanzia Comunale Il Tempo Magico",
               "description" : "Trieste Via G. Vasari 23",
               "isced:level" : "0",
               "amenity" : "kindergarten"
               }
    }
,
    {
      "id"  : 163,
      "lat" : 45.646056,
      "lon" : 13.783533,
      "tags" : {
               "name" : "Scuola dell'Infanzia Comunale La Scuola Del Sole",
               "description" : "Trieste Via Manzoni 14",
               "isced:level" : "0",
               "amenity" : "kindergarten"
               }
    }
,
    {
      "id"  : 164,
      "lat" : 45.666833,
      "lon" : 13.764967,
      "tags" : {
               "name" : "Scuola dell'Infanzia Comunale Delfino Blu",
               "description" : "Trieste Salita di Gretta 34/4",
               "isced:level" : "0",
               "ref" : "TSIC81400X",
               "amenity" : "kindergarten"
               }
    }
,
    {
      "id"  : 165,
      "lat" : 45.666314,
      "lon" : 13.773061,
      "tags" : {
               "name" : "Scuola dell'Infanzia Comunale L'isola Dei Tesori",
               "description" : "Trieste Vicolo delle Rose 5",
               "isced:level" : "0",
               "amenity" : "kindergarten"
               }
    }
,
    {
      "id"  : 166,
      "lat" : 45.665536,
      "lon" : 13.768211,
      "tags" : {
               "name" : "Scuola dell'Infanzia Comunale Sorelle Agazzi",
               "description" : "Trieste Vicolo San Fortunato 1",
               "isced:level" : "0",
               "amenity" : "kindergarten"
               }
    }
,
    {
      "id"  : 167,
      "lat" : 45.7039,
      "lon" : 13.736325,
      "tags" : {
               "name" : "Scuola dell'Infanzia Comunale Mario Silvestri",
               "description" : "Prosecco Borgo San Nazario 73",
               "isced:level" : "0",
               "amenity" : "kindergarten"
               }
    }
,
    {
      "id"  : 168,
      "lat" : 45.651931,
      "lon" : 13.788194,
      "tags" : {
               "name" : "Scuola dell'Infanzia Comunale Dijaski Dom - Lingua Ins. Slovena",
               "description" : "Trieste Via della Ginnastica 72",
               "isced:level" : "0",
               "amenity" : "kindergarten"
               }
    }
,
    {
      "id"  : 169,
      "lat" : 45.630092,
      "lon" : 13.780694,
      "tags" : {
               "name" : "Scuola dell'Infanzia Comunale Don Chalvien",
               "description" : "Trieste Via Italo Svevo 21",
               "isced:level" : "0",
               "amenity" : "kindergarten"
               }
    }
,
    {
      "id"  : 170,
      "lat" : 45.629214,
      "lon" : 13.783397,
      "tags" : {
               "name" : "Scuola dell'Infanzia Comunale Mille Colori",
               "description" : "Trieste Via di Salvore 12",
               "isced:level" : "0",
               "amenity" : "kindergarten"
               }
    }
,
    {
      "id"  : 171,
      "lat" : 45.657089,
      "lon" : 13.791508,
      "tags" : {
               "name" : "Scuola dell'Infanzia Comunale Ferrante Aporti",
               "description" : "Trieste Pendice Scoglietto 20",
               "isced:level" : "0",
               "amenity" : "kindergarten"
               }
    }
,
    {
      "id"  : 172,
      "lat" : 45.655281,
      "lon" : 13.788719,
      "tags" : {
               "name" : "Scuola dell'Infanzia Comunale Giardino Incantato (sede Provvisoria)",
               "description" : "Trieste Via Pietro Kandler 10",
               "isced:level" : "0",
               "amenity" : "kindergarten"
               }
    }
,
    {
      "id"  : 173,
      "lat" : 45.654172,
      "lon" : 13.805817,
      "tags" : {
               "name" : "Scuola dell'Infanzia Comunale Il Giardino Dei Sogni",
               "description" : "Trieste Via Eugenio Boegan 5",
               "isced:level" : "0",
               "amenity" : "kindergarten"
               }
    }
,
    {
      "id"  : 174,
      "lat" : 45.656581,
      "lon" : 13.808428,
      "tags" : {
               "name" : "Scuola dell'Infanzia Comunale Nuvola Olga/oblak Niko",
               "description" : "San Giovanni Via alle Cave 4",
               "isced:level" : "0",
               "amenity" : "kindergarten"
               }
    }
,
    {
      "id"  : 175,
      "lat" : 45.632975,
      "lon" : 13.789986,
      "tags" : {
               "name" : "Scuola dell'Infanzia Comunale G. Pollitzer",
               "description" : "Trieste Via dell'Istria 170",
               "isced:level" : "0",
               "amenity" : "kindergarten"
               }
    }
,
    {
      "id"  : 176,
      "lat" : 45.638789,
      "lon" : 13.78305,
      "tags" : {
               "name" : "Scuola dell'Infanzia Comunale Stella Marina",
               "description" : "Trieste Via di Ponziana 32",
               "isced:level" : "0",
               "amenity" : "kindergarten"
               }
    }
,
    {
      "id"  : 177,
      "lat" : 45.652008,
      "lon" : 13.791589,
      "tags" : {
               "name" : "Scuola dell'Infanzia Comunale Giochi Delle Stelle",
               "description" : "Trieste Via Carlo Archi 2",
               "isced:level" : "0",
               "amenity" : "kindergarten"
               }
    }
,
    {
      "id"  : 178,
      "lat" : 45.622792,
      "lon" : 13.797811,
      "tags" : {
               "name" : "Scuola dell'Infanzia Kamillo Kromo",
               "description" : "Sant'Anna Vecchia dell'Istria 78",
               "isced:level" : "0",
               "amenity" : "kindergarten"
               }
    }
,
    {
      "id"  : 179,
      "lat" : 45.625289,
      "lon" : 13.804508,
      "tags" : {
               "name" : "Scuola dell'Infanzia Comunale L'arcobaleno",
               "description" : "Trieste Via Gerolamo Frescobaldi 33",
               "isced:level" : "0",
               "amenity" : "kindergarten"
               }
    }
,
    {
      "id"  : 180,
      "lat" : 45.617756,
      "lon" : 13.825019,
      "tags" : {
               "name" : "Scuola dell'Infanzia Comunale La Capriola",
               "description" : "Trieste via Eugenio Curiel 10",
               "isced:level" : "0",
               "amenity" : "kindergarten"
               }
    }
,
    {
      "id"  : 181,
      "lat" : 45.616053,
      "lon" : 13.824033,
      "tags" : {
               "name" : "Scuola dell'Infanzia Comunale Tre Casette",
               "description" : "Trieste Via Petracco 12",
               "isced:level" : "0",
               "amenity" : "kindergarten"
               }
    }
,
    {
      "id"  : 182,
      "lat" : 45.646939,
      "lon" : 13.800719,
      "tags" : {
               "name" : "Scuola dell'Infanzia Comunale Mille Bimbi",
               "description" : "Trieste Via dei Mille 14",
               "isced:level" : "0",
               "amenity" : "kindergarten"
               }
    }
,
    {
      "id"  : 183,
      "lat" : 45.646161,
      "lon" : 13.775575,
      "tags" : {
               "name" : "Scuola dell'Infanzia Comunale Pallini",
               "description" : "Trieste Via dei Pallini 2",
               "isced:level" : "0",
               "amenity" : "kindergarten"
               }
    }
,
    {
      "id"  : 184,
      "lat" : 45.648194,
      "lon" : 13.772372,
      "tags" : {
               "name" : "Scuola dell'Infanzia Comunale Tor Cucherna",
               "description" : "Trieste Via dell'Asilo 4",
               "isced:level" : "0",
               "amenity" : "kindergarten"
               }
    }
,
    {
      "id"  : 185,
      "lat" : 45.640181,
      "lon" : 13.769694,
      "tags" : {
               "name" : "Scuola dell'Infanzia Comunale Primi Voli",
               "description" : "Trieste Via Mamiani 2",
               "isced:level" : "0",
               "amenity" : "kindergarten"
               }
    }
,
    {
      "id"  : 186,
      "lat" : 45.641275,
      "lon" : 13.777522,
      "tags" : {
               "name" : "Scuola dell'Infanzia Comunale Rena Nuova",
               "description" : "Trieste Via degli Antenorei 14",
               "isced:level" : "0",
               "amenity" : "kindergarten"
               }
    }
,
    {
      "id"  : 187,
      "lat" : 45.678756,
      "lon" : 13.756647,
      "tags" : {
               "name" : "Scuola dell'Infanzia paritaria Sacro Cuore",
               "description" : "Barcola Via del Cerreto 2",
               "isced:level" : "0",
               "amenity" : "kindergarten"
               }
    }
,
    {
      "id"  : 188,
      "lat" : 45.645142,
      "lon" : 13.789739,
      "tags" : {
               "name" : "Scuola dell'Infanzia paritaria Maddalena di Canossa",
               "description" : "Trieste Via Domenico Rossetti 66",
               "isced:level" : "0",
               "amenity" : "kindergarten"
               }
    }
,
    {
      "id"  : 189,
      "lat" : 45.658653,
      "lon" : 13.78665,
      "tags" : {
               "name" : "Scuola dell'Infanzia paritaria Casa Dei Bambini San Giusto",
               "description" : "Trieste Via Monte San Gabriele 34",
               "isced:level" : "0",
               "amenity" : "kindergarten"
               }
    }
,
    {
      "id"  : 190,
      "lat" : 45.658706,
      "lon" : 13.786439,
      "tags" : {
               "name" : "Scuola Primaria paritaria Montessori San Giusto",
               "description" : "Trieste Via Monte San Gabriele 34",
               "isced:level" : "1",
               "amenity" : "school"
               }
    }
,
    {
      "id"  : 191,
      "lat" : 45.649194,
      "lon" : 13.774419,
      "tags" : {
               "name" : "Scuola dell'Infanzia paritaria Marco Tedeschi",
               "description" : "Trieste Via del Monte 3",
               "isced:level" : "0",
               "amenity" : "kindergarten"
               }
    }
,
    {
      "id"  : 192,
      "lat" : 45.649178,
      "lon" : 13.77455,
      "tags" : {
               "name" : "Scuola Primaria paritaria I.S. Morpurgo",
               "description" : "Trieste Via del Monte 3/5",
               "isced:level" : "1",
               "amenity" : "school"
               }
    }
,
    {
      "id"  : 193,
      "lat" : 45.647069,
      "lon" : 13.774811,
      "tags" : {
               "name" : "Scuola dell'Infanzia paritaria Istituto Sacro Cuore",
               "description" : "Trieste Via Tommaso Grossi 8",
               "isced:level" : "0",
               "amenity" : "kindergarten"
               }
    }
,
    {
      "id"  : 194,
      "lat" : 45.646981,
      "lon" : 13.774872,
      "tags" : {
               "name" : "Scuola Primaria paritaria Istituto Sacro Cuore",
               "description" : "Trieste Via Tommaso Grossi 8",
               "isced:level" : "1",
               "amenity" : "school"
               }
    }
,
    {
      "id"  : 195,
      "lat" : 45.643431,
      "lon" : 13.76345,
      "tags" : {
               "name" : "Scuola dell'Infanzia paritaria Armida Barelli",
               "description" : "Trieste Viale della III armata 22",
               "isced:level" : "0",
               "amenity" : "kindergarten"
               }
    }
,
    {
      "id"  : 196,
      "lat" : 45.637636,
      "lon" : 13.784867,
      "tags" : {
               "name" : "Scuola dell'Infanzia paritaria Maria Ausiliatrice",
               "description" : "Trieste Via dell'Istria 55",
               "isced:level" : "0",
               "amenity" : "kindergarten"
               }
    }
,
    {
      "id"  : 197,
      "lat" : 45.636469,
      "lon" : 13.785303,
      "tags" : {
               "name" : "Scuola dell'Infanzia paritaria Casa Della Fanciulla",
               "description" : "Trieste Via dell'Istria 61",
               "isced:level" : "0",
               "amenity" : "kindergarten"
               }
    }
,
    {
      "id"  : 198,
      "lat" : 45.662692,
      "lon" : 13.779869,
      "tags" : {
               "name" : "Scuola dell'Infanzia paritaria European School",
               "description" : "Trieste Via Ovidio 49",
               "isced:level" : "0",
               "amenity" : "kindergarten"
               }
    }
,
    {
      "id"  : 199,
      "lat" : 45.662692,
      "lon" : 13.779708,
      "tags" : {
               "name" : "Scuola Primaria paritaria European School",
               "description" : "Trieste Via Ovidio 49",
               "isced:level" : "1",
               "amenity" : "school"
               }
    }
,
    {
      "id"  : 200,
      "lat" : 45.682906,
      "lon" : 13.792322,
      "tags" : {
               "name" : "Scuola Primaria Privata International School",
               "description" : "Opicina Via di Conconello 16",
               "isced:level" : "1",
               "amenity" : "school"
               }
    }
,
    {
      "id"  : 201,
      "lat" : 45.658047,
      "lon" : 13.779003,
      "tags" : {
               "name" : "Scuola dell'Infanzia paritaria Ancelle Della Carita'",
               "description" : "Trieste Via di Scorcola 7",
               "isced:level" : "0",
               "amenity" : "kindergarten"
               }
    }
,
    {
      "id"  : 202,
      "lat" : 45.657969,
      "lon" : 13.779183,
      "tags" : {
               "name" : "Scuola Primaria paritaria Ancelle Della Carita'",
               "description" : "Trieste Via di Scorcola 7",
               "isced:level" : "1",
               "amenity" : "school"
               }
    }
,
    {
      "id"  : 203,
      "lat" : 46.230894,
      "lon" : 13.174867,
      "tags" : {
               "name" : "Scuola dell'Infanzia di Magnano In Riviera",
               "description" : "Magnano in Riviera via Montessori 10",
               "isced:level" : "0",
               "amenity" : "kindergarten"
               }
    }
,
    {
      "id"  : 204,
      "lat" : 46.230475,
      "lon" : 13.174531,
      "tags" : {
               "name" : "Scuola Primaria Enrico Fermi",
               "description" : "Magnano in Riviera via Manzoni 9",
               "isced:level" : "1",
               "amenity" : "school"
               }
    }
,
    {
      "id"  : 205,
      "lat" : 46.283619,
      "lon" : 13.126617,
      "tags" : {
               "name" : "Scuola Secondaria di 2° grado Giuseppe Marchetti",
               "description" : "Gemona del Friuli (UD) via Praviolai 4 33013 Gemona del Friuli (UD)",
               "isced:level" : "3",
               "amenity" : "school"
               }
    }
,
    {
      "id"  : 206,
      "lat" : 46.298825,
      "lon" : 13.118153,
      "tags" : {
               "name" : "Scuola Primaria Fraz. Ospedaletto",
               "description" : "Ospedaletto Gemona del Friuli (UD) Via Nazionale 33013 Gemona del Friuli (UD)",
               "isced:level" : "1",
               "amenity" : "school"
               }
    }
,
    {
      "id"  : 207,
      "lat" : 46.298089,
      "lon" : 13.118286,
      "tags" : {
               "name" : "Scuola Primaria Fraz. Ospedaletto - Palestra",
               "description" : "Ospedaletto Gemona del Friuli (UD) Via Nazionale 33013 Gemona del Friuli (UD)",
               "isced:level" : "1",
               "amenity" : "school"
               }
    }
,
    {
      "id"  : 208,
      "lat" : 46.280653,
      "lon" : 13.137869,
      "tags" : {
               "name" : "Scuola dell'Infanzia di Gemona",
               "description" : "Gemona del Friuli (UD) via Cappuccini 33013 Gemona del Friuli (UD)",
               "isced:level" : "0",
               "amenity" : "kindergarten"
               }
    }
,
    {
      "id"  : 209,
      "lat" : 46.270986,
      "lon" : 13.132369,
      "tags" : {
               "name" : "Scuola dell'Infanzia di Gemona/piovega",
               "description" : "Piovega via Morganti 5",
               "isced:level" : "0",
               "amenity" : "kindergarten"
               }
    }
,
    {
      "id"  : 210,
      "lat" : 46.273744,
      "lon" : 13.134342,
      "tags" : {
               "name" : "Scuola Primaria di Piovega",
               "description" : "Piovega Gemona del Friuli (UD) via dei Pioppi 45",
               "isced:level" : "1",
               "amenity" : "school"
               }
    }
,
    {
      "id"  : 211,
      "lat" : 46.273744,
      "lon" : 13.133675,
      "tags" : {
               "name" : "Scuola Primaria di Piovega - Palestra",
               "description" : "Piovega via dei Pioppi 45 33013 Gemona del Friuli (UD)",
               "isced:level" : "1",
               "amenity" : "school"
               }
    }
,
    {
      "id"  : 212,
      "lat" : 46.251322,
      "lon" : 13.114317,
      "tags" : {
               "name" : "Scuola dell'Infanzia di Gemona/campolessi",
               "description" : "Campo Lessi via San Marco 4",
               "isced:level" : "0",
               "amenity" : "kindergarten"
               }
    }
,
    {
      "id"  : 213,
      "lat" : 46.285422,
      "lon" : 13.125817,
      "tags" : {
               "name" : "Scuola Secondaria di 2° grado Raimondo d'Aronco - Iti",
               "description" : "Gemona del Friuli (UD) via Battiferro 7 33013 Gemona del Friuli (UD)",
               "isced:level" : "3",
               "amenity" : "school"
               }
    }
,
    {
      "id"  : 214,
      "lat" : 46.285422,
      "lon" : 13.125817,
      "tags" : {
               "name" : "Scuola Secondaria di 2° grado Raimondo d'Aronco - Ipsia",
               "description" : "Gemona del Friuli via Battiferro 3 33013 Gemona del Friuli (UD)",
               "isced:level" : "3",
               "amenity" : "school"
               }
    }
,
    {
      "id"  : 215,
      "lat" : 46.284264,
      "lon" : 13.126428,
      "tags" : {
               "name" : "Scuola Secondaria di 2° grado Luigi Magrini",
               "description" : "Gemona del Friuli (UD) via Praviolai 18 Gemona del Friuli (UD)",
               "isced:level" : "3",
               "amenity" : "school"
               }
    }
,
    {
      "id"  : 216,
      "lat" : 46.276461,
      "lon" : 13.133144,
      "tags" : {
               "name" : "Scuola Secondaria di 1° grado Gen. Cantore",
               "description" : "Gemona del friuli (UD) via D'Aronco, 1 33013 Gemona del Friuli (UD)",
               "isced:level" : "2",
               "amenity" : "school"
               }
    }
,
    {
      "id"  : 217,
      "lat" : 46.297003,
      "lon" : 13.116483,
      "tags" : {
               "name" : "Scuola dell'Infanzia paritaria P.Tarcisio Martina",
               "description" : "Ospedaletto Gemona del Friuli (UD) Via Ippolito Nievo, 14 33013 Gemona del Friuli (UD)",
               "isced:level" : "0",
               "amenity" : "kindergarten"
               }
    }
,
    {
      "id"  : 218,
      "lat" : 46.277539,
      "lon" : 13.134597,
      "tags" : {
               "name" : "Scuola dell'Infanzia paritaria Santa Maria Degli Angeli",
               "description" : "Gemona del Friuli (UD) Via Dante 4 33013 Gemona del Friuli (UD)",
               "isced:level" : "0",
               "amenity" : "kindergarten"
               }
    }
,
    {
      "id"  : 219,
      "lat" : 46.2782,
      "lon" : 13.134806,
      "tags" : {
               "name" : "Scuola Primaria paritaria Santa Maria Degli Angeli",
               "description" : "Gemona del Friuli (UD) Via Dante 4 33013 Gemona del Friuli (UD)",
               "isced:level" : "1",
               "amenity" : "school"
               }
    }
,
    {
      "id"  : 220,
      "lat" : 46.277897,
      "lon" : 13.134178,
      "tags" : {
               "name" : "Scuola Secondaria di 1° grado Santa Maria Degli Angeli",
               "description" : "Gemona del Friuli (UD) Via Dante 4 33013 Gemona del Friuli (UD)",
               "isced:level" : "2",
               "amenity" : "school"
               }
    }
,
    {
      "id"  : 221,
      "lat" : 46.017942,
      "lon" : 12.979578,
      "tags" : {
               "name" : "Scuola Secondaria di 1° grado Martin Luther King",
               "description" : "Sedegliano via Martiri della Libertà 19",
               "isced:level" : "2",
               "amenity" : "school"
               }
    }
,
    {
      "id"  : 222,
      "lat" : 46.018408,
      "lon" : 12.979539,
      "tags" : {
               "name" : "Scuola Primaria Padre David Maria Turoldo",
               "description" : "Sedegliano Via Martiri della Libertà 19",
               "isced:level" : "1",
               "amenity" : "school"
               }
    }
,
    {
      "id"  : 223,
      "lat" : 46.015647,
      "lon" : 12.977592,
      "tags" : {
               "name" : "Scuola dell'Infanzia Comunale Don Antonio Sbaiz",
               "description" : "Sedegliano Via Roma 9/2",
               "isced:level" : "0",
               "amenity" : "kindergarten"
               }
    }
,
    {
      "id"  : 224,
      "lat" : 46.131567,
      "lon" : 13.295342,
      "tags" : {
               "name" : "Scuola dell'Infanzia di Povoletto/marsure",
               "description" : "Marsure di Sotto via Casali Merlo 5",
               "isced:level" : "0",
               "amenity" : "kindergarten"
               }
    }
,
    {
      "id"  : 225,
      "lat" : 46.131106,
      "lon" : 13.297103,
      "tags" : {
               "name" : "Scuola Secondaria di 1° grado Iacopo Pirona",
               "description" : "Marsure di Sotto Casali Merlo 1",
               "isced:level" : "2",
               "amenity" : "school"
               }
    }
,
    {
      "id"  : 226,
      "lat" : 46.113708,
      "lon" : 13.284886,
      "tags" : {
               "name" : "Scuola Materna non statale V. Cecutti",
               "description" : "Salt Piazza San Martino 20",
               "isced:level" : "0",
               "amenity" : "kindergarten"
               }
    }
,
    {
      "id"  : 227,
      "lat" : 46.164869,
      "lon" : 13.265892,
      "tags" : {
               "name" : "Scuola Materna non statale Maria Immacolata",
               "description" : "Savorgnano al Torre Piazza Luigi Ciani 11",
               "isced:level" : "0",
               "amenity" : "kindergarten"
               }
    }
,
    {
      "id"  : 228,
      "lat" : 46.130864,
      "lon" : 13.297028,
      "tags" : {
               "name" : "Scuola Primaria Frazione Marsure di Magredis",
               "description" : "Marsure di Sotto Casali Merlo 1",
               "isced:level" : "1",
               "amenity" : "school"
               }
    }
,
    {
      "id"  : 229,
      "lat" : 46.167408,
      "lon" : 12.923608,
      "tags" : {
               "name" : "Scuola dell'Infanzia Trieste",
               "description" : "Pinzano frazione Valeriano Via Roma 31",
               "isced:level" : "0",
               "amenity" : "kindergarten"
               }
    }
,
    {
      "id"  : 230,
      "lat" : 46.181092,
      "lon" : 12.94535,
      "tags" : {
               "name" : "Scuola Primaria Giosue' Carducci",
               "description" : "Pinzano al Tagliamento Via Tagliamento 25",
               "isced:level" : "1",
               "amenity" : "school"
               }
    }
,
    {
      "id"  : 231,
      "lat" : 45.765111,
      "lon" : 13.168339,
      "tags" : {
               "name" : "Scuola dell'Infanzia di Marano Lagunare",
               "description" : "Marano Lagunare via Foscolo 1",
               "isced:level" : "0",
               "amenity" : "kindergarten"
               }
    }
,
    {
      "id"  : 232,
      "lat" : 45.766808,
      "lon" : 13.168558,
      "tags" : {
               "name" : "Scuola Primaria di Marano Lagunare",
               "description" : "Marano Lagunare via Udine, 18",
               "isced:level" : "1",
               "amenity" : "school"
               }
    }
,
    {
      "id"  : 233,
      "lat" : 45.766758,
      "lon" : 13.169239,
      "tags" : {
               "name" : "Scuola Secondaria di 1° grado di Via Serenissima",
               "description" : "Marano Lagunare Via Serenissima 7",
               "isced:level" : "2",
               "ref" : "UDEE81102N",
               "amenity" : "school"
               }
    }
,
    {
      "id"  : 234,
      "lat" : 45.876983,
      "lon" : 13.483136,
      "tags" : {
               "name" : "Scuola dell'Infanzia Carlo Bozzi",
               "description" : "Sagrado Via del Castello 35",
               "isced:level" : "0",
               "ref" : "GOAA806023",
               "amenity" : "kindergarten"
               }
    }
,
    {
      "id"  : 235,
      "lat" : 45.877361,
      "lon" : 13.484486,
      "tags" : {
               "name" : "Scuola Primaria Giosuè Carducci",
               "description" : "Sagrado Via S. Pio Decimo 3",
               "isced:level" : "1",
               "amenity" : "school"
               }
    }
,
    {
      "id"  : 236,
      "lat" : 45.87265,
      "lon" : 13.4888,
      "tags" : {
               "name" : "Scuola dell'Infanzia paritaria Waldorf Silvana Corazza",
               "description" : "Sagrado Largo Castelvecchio 4",
               "isced:level" : "0",
               "amenity" : "kindergarten"
               }
    }
,
    {
      "id"  : 237,
      "lat" : 45.87265,
      "lon" : 13.488969,
      "tags" : {
               "name" : "Scuola Primaria paritaria Waldorf Silvana Corazza",
               "description" : "Sagrado Largo Castelvecchio 4",
               "isced:level" : "1",
               "amenity" : "school"
               }
    }
,
    {
      "id"  : 238,
      "lat" : 45.872553,
      "lon" : 13.489106,
      "tags" : {
               "name" : "Scuola Secondaria di 1° grado paritaria Waldorf Silvana Corazza",
               "description" : "Sagrado Largo Castelvecchio 4",
               "isced:level" : "2",
               "amenity" : "school"
               }
    }
,
    {
      "id"  : 239,
      "lat" : 46.402706,
      "lon" : 12.821756,
      "tags" : {
               "name" : "Scuola dell'Infanzia di Socchieve - Mediis",
               "description" : "Mediis Via Sandro Pertini 11",
               "isced:level" : "0",
               "amenity" : "kindergarten"
               }
    }
,
    {
      "id"  : 240,
      "lat" : 46.402561,
      "lon" : 12.822283,
      "tags" : {
               "name" : "Scuola Primaria di Mediis",
               "description" : "Mediis Via Sandro Pertini 9",
               "isced:level" : "1",
               "amenity" : "school"
               }
    }
,
    {
      "id"  : 241,
      "lat" : 46.132033,
      "lon" : 13.362344,
      "tags" : {
               "name" : "Scuola dell'Infanzia di Faedis/campeglio",
               "description" : "Campeglio via San Michele",
               "isced:level" : "0",
               "amenity" : "kindergarten"
               }
    }
,
    {
      "id"  : 242,
      "lat" : 46.151944,
      "lon" : 13.343358,
      "tags" : {
               "name" : "Scuola dell'Infanzia di Faedis Capoluogo",
               "description" : "Faedis via Pranuf",
               "isced:level" : "0",
               "amenity" : "kindergarten"
               }
    }
,
    {
      "id"  : 243,
      "lat" : 46.151447,
      "lon" : 13.3411,
      "tags" : {
               "name" : "Scuola Secondaria di 1° grado di Via Pranuf",
               "description" : "Faedis via Pranuf",
               "isced:level" : "2",
               "amenity" : "school"
               }
    }
,
    {
      "id"  : 244,
      "lat" : 46.150858,
      "lon" : 13.340833,
      "tags" : {
               "name" : "Scuola Primaria di Piazza Vittorio Veneto",
               "description" : "Faedis Via Pranuf",
               "isced:level" : "1",
               "amenity" : "school"
               }
    }
,
    {
      "id"  : 245,
      "lat" : 45.964436,
      "lon" : 12.436281,
      "tags" : {
               "name" : "Scuola dell'Infanzia Caneva Stevena'",
               "description" : "Stevenà Via Ippolito Nievo",
               "isced:level" : "0",
               "amenity" : "kindergarten"
               }
    }
,
    {
      "id"  : 246,
      "lat" : 45.993172,
      "lon" : 12.465156,
      "tags" : {
               "name" : "Scuola dell'Infanzia Sarone S.Giuseppe",
               "description" : "Sarone Via Montello",
               "isced:level" : "0",
               "amenity" : "kindergarten"
               }
    }
,
    {
      "id"  : 247,
      "lat" : 45.964767,
      "lon" : 12.445003,
      "tags" : {
               "name" : "Scuola Primaria Umberto I°",
               "description" : "Caneva Via Marconi 77",
               "isced:level" : "1",
               "amenity" : "school"
               }
    }
,
    {
      "id"  : 248,
      "lat" : 45.993592,
      "lon" : 12.464569,
      "tags" : {
               "name" : "Scuola Primaria Sarone Guglielmo Marconi",
               "description" : "Caneva Via Montello 15",
               "isced:level" : "1",
               "ref" : "PNAA81602G",
               "amenity" : "school"
               }
    }
,
    {
      "id"  : 249,
      "lat" : 45.965625,
      "lon" : 12.444381,
      "tags" : {
               "name" : "Scuola Secondaria di 1° grado Enrico Fermi",
               "description" : "Caneva Via Marconi 77",
               "isced:level" : "2",
               "amenity" : "school"
               }
    }
,
    {
      "id"  : 250,
      "lat" : 45.965089,
      "lon" : 12.444561,
      "tags" : {
               "name" : "Scuola Primaria Umberto I° - Palestra",
               "description" : "Caneva Via Marconi 77",
               "isced:level" : "1",
               "amenity" : "school"
               }
    }
,
    {
      "id"  : 251,
      "lat" : 45.969244,
      "lon" : 12.450392,
      "tags" : {
               "name" : "Scuola dell'Infanzia paritaria Monsignor Oreaste Bortolussi",
               "description" : "Caneva Via Roma 1",
               "isced:level" : "0",
               "amenity" : "kindergarten"
               }
    }
,
    {
      "id"  : 252,
      "lat" : 45.929061,
      "lon" : 13.524508,
      "tags" : {
               "name" : "Scuola dell'Infanzia Giovanni Clocchiatti",
               "description" : "San Lorenzo Isontino Via Tommaseo 25",
               "isced:level" : "0",
               "amenity" : "kindergarten"
               }
    }
,
    {
      "id"  : 253,
      "lat" : 45.930936,
      "lon" : 13.528997,
      "tags" : {
               "name" : "Scuola Primaria Niccolo' Tommaseo",
               "description" : "San Lorenzo Isontino Via D'Annunzio 11",
               "isced:level" : "1",
               "amenity" : "school"
               }
    }
,
    {
      "id"  : 254,
      "lat" : 45.815856,
      "lon" : 13.348661,
      "tags" : {
               "name" : "Scuola Primaria Abate Biavi",
               "description" : "Cervignano del Friuli via Turisella 29",
               "isced:level" : "1",
               "amenity" : "school"
               }
    }
,
    {
      "id"  : 255,
      "lat" : 45.858775,
      "lon" : 13.319086,
      "tags" : {
               "name" : "Scuola Primaria Vincenzo Gioberti",
               "description" : "Strassoldo via delle Scuole 32",
               "isced:level" : "1",
               "amenity" : "school"
               }
    }
,
    {
      "id"  : 256,
      "lat" : 45.819264,
      "lon" : 13.329944,
      "tags" : {
               "name" : "Scuola Primaria Angelo Molaro",
               "description" : "Cervignano del Friuli Via Caiu 1",
               "isced:level" : "1",
               "amenity" : "school"
               }
    }
,
    {
      "id"  : 257,
      "lat" : 45.820139,
      "lon" : 13.339144,
      "tags" : {
               "name" : "Scuola Primaria Riccardo Pitteri",
               "description" : "Cervignano del Friuli via Firenze 1",
               "isced:level" : "1",
               "amenity" : "school"
               }
    }
,
    {
      "id"  : 258,
      "lat" : 45.815364,
      "lon" : 13.349461,
      "tags" : {
               "name" : "Scuola dell'Infanzia Carlo Lorenzini Collodi",
               "description" : "Cervignano del Friuli via della Turisella 33",
               "isced:level" : "0",
               "amenity" : "kindergarten"
               }
    }
,
    {
      "id"  : 259,
      "lat" : 45.816464,
      "lon" : 13.333233,
      "tags" : {
               "name" : "Scuola dell'Infanzia Vittorio Podrecca",
               "description" : "Cervignano del Friuli via Predicort 17",
               "isced:level" : "0",
               "amenity" : "kindergarten"
               }
    }
,
    {
      "id"  : 260,
      "lat" : 45.859139,
      "lon" : 13.318767,
      "tags" : {
               "name" : "Scuola dell'Infanzia Carlo d'Agostina",
               "description" : "Strassoldo via delle Scuole 32",
               "isced:level" : "0",
               "amenity" : "kindergarten"
               }
    }
,
    {
      "id"  : 261,
      "lat" : 45.827164,
      "lon" : 13.333119,
      "tags" : {
               "name" : "Scuola Secondaria di 1° grado Giovanni Randaccio",
               "description" : "Cervignano del Friuli via Udine 37",
               "isced:level" : "2",
               "amenity" : "school"
               }
    }
,
    {
      "id"  : 262,
      "lat" : 45.827156,
      "lon" : 13.339844,
      "tags" : {
               "name" : "Scuola dell'Infanzia Gianni Rodari",
               "description" : "Cervignano del Friuli Via Ramazzotti, 1",
               "isced:level" : "0",
               "amenity" : "kindergarten"
               }
    }
,
    {
      "id"  : 263,
      "lat" : 45.825028,
      "lon" : 13.345247,
      "tags" : {
               "name" : "Scuola Secondaria di 2° Malignani 2000",
               "description" : "Cervignano del Friuli via Ramazzotti 41",
               "isced:level" : "3",
               "amenity" : "school"
               }
    }
,
    {
      "id"  : 264,
      "lat" : 45.813925,
      "lon" : 13.341689,
      "tags" : {
               "name" : "Scuola Secondaria di 2° grado Albert Einstein",
               "description" : "Cervignano del Friuli via Pradati",
               "isced:level" : "3",
               "amenity" : "school"
               }
    }
,
    {
      "id"  : 265,
      "lat" : 45.819936,
      "lon" : 13.333972,
      "tags" : {
               "name" : "Scuola Materna non statale Parrocchiale Maria Immacolata",
               "description" : "Cervignano del Friuli Via Brumatti 27",
               "isced:level" : "0",
               "amenity" : "kindergarten"
               }
    }
,
    {
      "id"  : 266,
      "lat" : 46.093156,
      "lon" : 13.375622,
      "tags" : {
               "name" : "Scuola Primaria Guglielmo Marconi",
               "description" : "Moimacco Via Dominissina 1",
               "isced:level" : "1",
               "ref" : "UDEE831041",
               "amenity" : "school"
               }
    }
,
    {
      "id"  : 267,
      "lat" : 46.093461,
      "lon" : 13.375511,
      "tags" : {
               "name" : "Scuola dell'Infanzia Celestina Blanchini",
               "description" : "Moimacco Via Dominissina 3",
               "isced:level" : "0",
               "ref" : "UDAA83104Q",
               "amenity" : "kindergarten"
               }
    }
,
    {
      "id"  : 268,
      "lat" : 45.847542,
      "lon" : 12.631703,
      "tags" : {
               "name" : "Scuola Primaria Dante Alighieri",
               "description" : "Pasiano Capoluogo Via delle Vigne 6",
               "isced:level" : "1",
               "amenity" : "school"
               }
    }
,
    {
      "id"  : 269,
      "lat" : 45.872947,
      "lon" : 12.609464,
      "tags" : {
               "name" : "Scuola Primaria Madre Teresa di Calcutta",
               "description" : "Pasiano Via di mezzo 1",
               "isced:level" : "1",
               "amenity" : "school"
               }
    }
,
    {
      "id"  : 270,
      "lat" : 45.848314,
      "lon" : 12.629892,
      "tags" : {
               "name" : "Scuola Secondaria di 1° grado Celso Costantini",
               "description" : "Pasian di Pordenone Via Coletti 35",
               "isced:level" : "2",
               "amenity" : "school"
               }
    }
,
    {
      "id"  : 271,
      "lat" : 45.847628,
      "lon" : 12.629872,
      "tags" : {
               "name" : "Scuola Secondaria di 1° grado Celso Costantini - Palestra",
               "description" : "Pasiano di Pordenone Via Coletti 39",
               "isced:level" : "2",
               "ref" : "PNMM814013",
               "amenity" : "school"
               }
    }
,
    {
      "id"  : 272,
      "lat" : 45.848136,
      "lon" : 12.624161,
      "tags" : {
               "name" : "Scuola dell'Infanzia paritaria Gesu' Bambino",
               "description" : "Pasiano di Pordenone Via Roma 50",
               "isced:level" : "0",
               "amenity" : "kindergarten"
               }
    }
,
    {
      "id"  : 273,
      "lat" : 45.845758,
      "lon" : 12.578919,
      "tags" : {
               "name" : "Scuola dell'Infanzia paritaria San Benedetto",
               "description" : "Rivarotta Via Chiesa Rivarotta n.5",
               "isced:level" : "0",
               "amenity" : "kindergarten"
               }
    }
,
    {
      "id"  : 274,
      "lat" : 46.517142,
      "lon" : 12.869828,
      "tags" : {
               "name" : "Scuola dell'Infanzia G. De Antoni",
               "description" : "Comeglians Via Roma",
               "isced:level" : "0",
               "amenity" : "kindergarten"
               }
    }
,
    {
      "id"  : 275,
      "lat" : 46.516858,
      "lon" : 12.8697,
      "tags" : {
               "name" : "Scuola Secondaria di 1° grado Michele Gortani",
               "description" : "Comeglians Via Roma 49/A",
               "isced:level" : "2",
               "ref" : "UDMM80901G",
               "amenity" : "school"
               }
    }
,
    {
      "id"  : 276,
      "lat" : 46.5168,
      "lon" : 12.869336,
      "tags" : {
               "name" : "Scuola Primaria Michele Gortani",
               "description" : "Comeglians Via Roma",
               "isced:level" : "1",
               "amenity" : "school"
               }
    }
,
    {
      "id"  : 277,
      "lat" : 45.9142,
      "lon" : 13.343153,
      "tags" : {
               "name" : "Scuola dell'Infanzia di Palmanova/ialmicco",
               "description" : "Ialmicco via Udine",
               "isced:level" : "0",
               "amenity" : "kindergarten"
               }
    }
,
    {
      "id"  : 278,
      "lat" : 45.904639,
      "lon" : 13.308344,
      "tags" : {
               "name" : "Scuola Primaria di Palmanova",
               "description" : "Palmanova via Dante Alighieri 3",
               "isced:level" : "1",
               "amenity" : "school"
               }
    }
,
    {
      "id"  : 279,
      "lat" : 45.901883,
      "lon" : 13.308506,
      "tags" : {
               "name" : "Scuola Secondaria di 1° grado Pietro Zorutti",
               "description" : "Palmanova Borgo Aquileia 35",
               "isced:level" : "2",
               "ref" : "UDMM83301C",
               "amenity" : "school"
               }
    }
,
    {
      "id"  : 280,
      "lat" : 45.911631,
      "lon" : 13.320881,
      "tags" : {
               "name" : "Scuola Secondaria di 2° grado Luigi Einaudi",
               "description" : "Sottoselva Via Milano 2",
               "isced:level" : "3",
               "amenity" : "school"
               }
    }
,
    {
      "id"  : 281,
      "lat" : 45.901086,
      "lon" : 13.307336,
      "tags" : {
               "name" : "Scuola dell'Infanzia paritaria Regina Margherita",
               "description" : "Palmanova Contrada Foscarini n. 39",
               "isced:level" : "0",
               "amenity" : "kindergarten"
               }
    }
,
    {
      "id"  : 282,
      "lat" : 45.911633,
      "lon" : 13.321417,
      "tags" : {
               "name" : "Scuola Secondaria di 2° grado Enrico Mattei",
               "description" : "Sottoselva Via Milano 2",
               "isced:level" : "3",
               "amenity" : "school"
               }
    }
,
    {
      "id"  : 283,
      "lat" : 45.905,
      "lon" : 13.575,
      "tags" : {
               "name" : "Scuola Primaria Peter Butkovic - Lingua Ins. Slovena",
               "description" : "Savogna d'Isonzo Via I Maggio 69",
               "isced:level" : "1",
               "amenity" : "school"
               }
    }
,
    {
      "id"  : 284,
      "lat" : 45.884681,
      "lon" : 13.562811,
      "tags" : {
               "name" : "Scuola Primaria di San Michele Del Carso - Lingua Ins. Slovena",
               "description" : "S. Michele del Carso Brezici 2",
               "isced:level" : "1",
               "amenity" : "school"
               }
    }
,
    {
      "id"  : 285,
      "lat" : 45.903031,
      "lon" : 13.572631,
      "tags" : {
               "name" : "Scuola dell'Infanzia di Via Stradalta - Lingua Ins. Slovena",
               "description" : "Savogna d'Isonzo Via Stradalta",
               "isced:level" : "0",
               "amenity" : "kindergarten"
               }
    }
,
    {
      "id"  : 286,
      "lat" : 45.843569,
      "lon" : 12.879739,
      "tags" : {
               "name" : "Scuola Primaria Ippolito Nievo",
               "description" : "Cordovado Piazza Ippolito Nievo 3",
               "isced:level" : "1",
               "ref" : "PNEE80901L",
               "amenity" : "school"
               }
    }
,
    {
      "id"  : 287,
      "lat" : 45.843317,
      "lon" : 12.880122,
      "tags" : {
               "name" : "Scuola Secondaria di 1° grado Via Bassa",
               "description" : "Cordovado Via Bassa 6",
               "isced:level" : "2",
               "ref" : "PNMM80903N",
               "amenity" : "school"
               }
    }
,
    {
      "id"  : 288,
      "lat" : 45.845428,
      "lon" : 12.880264,
      "tags" : {
               "name" : "Scuola dell'Infanzia di Cordovado",
               "description" : "Cordovado Via Roma 2",
               "isced:level" : "0",
               "ref" : "PNAA80903D",
               "amenity" : "kindergarten"
               }
    }
,
    {
      "id"  : 289,
