[
    {
      "id"  : 56,
      "lat" : 45.904531,
      "lon" : 12.536481,
      "tags" : {
               "name" : "Area verde via A. Volta",
               "ref" : 1,
               "emergency" : "assembly_point",
               "assembly_point:earthquake" : "yes"
               }
    }
,
    {
      "id"  : 57,
      "lat" : 45.903164,
      "lon" : 12.531061,
      "tags" : {
               "name" : "Area verde scuola media",
               "ref" : 2,
               "emergency" : "assembly_point",
               "assembly_point:earthquake" : "yes"
               }
    }
,
    {
      "id"  : 58,
      "lat" : 45.896897,
      "lon" : 12.556353,
      "tags" : {
               "name" : "Area mercato Maron",
               "ref" : 4,
               "emergency" : "assembly_point",
               "assembly_point:earthquake" : "yes"
               }
    }
,
    {
      "id"  : 59,
      "lat" : 45.875483,
      "lon" : 12.542361,
      "tags" : {
               "name" : "Area esterna cimitero di San Cassiano",
               "ref" : 7,
               "emergency" : "assembly_point",
               "assembly_point:earthquake" : "yes"
               }
    }
,
    {
      "id"  : 60,
      "lat" : 45.906239,
      "lon" : 12.530375,
      "tags" : {
               "name" : "Via Marconi",
               "ref" : 9,
               "emergency" : "assembly_point",
               "assembly_point:earthquake" : "yes"
               }
    }
,
    {
      "id"  : 61,
      "lat" : 45.89475,
      "lon" : 12.545953,
      "tags" : {
               "name" : "Parcherggio campo sportivo Maron",
               "ref" : 12,
               "emergency" : "assembly_point",
               "assembly_point:earthquake" : "yes"
               }
    }
,
    {
      "id"  : 62,
      "lat" : 45.922264,
      "lon" : 12.568672,
      "tags" : {
               "name" : "Area verde Via Giovanni XXIII",
               "ref" : 13,
               "emergency" : "assembly_point",
               "assembly_point:earthquake" : "yes"
               }
    }
,
    {
      "id"  : 63,
      "lat" : 45.898817,
      "lon" : 12.535858,
      "tags" : {
               "name" : "Parcheggio Municipio",
               "ref" : 14,
               "emergency" : "assembly_point",
               "assembly_point:earthquake" : "yes"
               }
    }
,
    {
      "id"  : 64,
      "lat" : 45.924817,
      "lon" : 12.569281,
      "tags" : {
               "name" : "Parcheggio scuola elementare Tamai",
               "ref" : 15,
               "emergency" : "assembly_point",
               "assembly_point:earthquake" : "yes"
               }
    }
,
    {
      "id"  : 65,
      "lat" : 45.925619,
      "lon" : 12.5716,
      "tags" : {
               "name" : "Parcheggio via A. Moro",
               "ref" : 16,
               "emergency" : "assembly_point",
               "assembly_point:earthquake" : "yes"
               }
    }
,
    {
      "id"  : 66,
      "lat" : 45.9023,
      "lon" : 12.556311,
      "tags" : {
               "name" : "Parcheggio supermercato via Taglio",
               "ref" : 17,
               "emergency" : "assembly_point",
               "assembly_point:earthquake" : "yes"
               }
    }
,
    {
      "id"  : 67,
      "lat" : 45.907964,
      "lon" : 12.540711,
      "tags" : {
               "name" : "Parcheggio ristorante Tinello",
               "ref" : 18,
               "emergency" : "assembly_point",
               "assembly_point:earthquake" : "yes"
               }
    }
,
    {
      "id"  : 68,
      "lat" : 45.910894,
      "lon" : 12.533581,
      "tags" : {
               "name" : "Parcheggio bar via N. Sauro",
               "ref" : 19,
               "emergency" : "assembly_point",
               "assembly_point:earthquake" : "yes"
               }
    }
,
    {
      "id"  : 83,
      "lat" : 46.268281,
      "lon" : 12.517392,
      "tags" : {
               "name" : "area Pregulin",
               "ref" : 2,
               "emergency" : "assembly_point",
               "assembly_point:earthquake" : "yes"
               }
    }
,
    {
      "id"  : 84,
      "lat" : 46.268047,
      "lon" : 12.515189,
      "tags" : {
               "name" : "area ex cinema",
               "ref" : 3,
               "emergency" : "assembly_point",
               "assembly_point:earthquake" : "yes"
               }
    }
,
    {
      "id"  : 85,
      "lat" : 46.268875,
      "lon" : 12.513347,
      "tags" : {
               "name" : "Conca verde",
               "ref" : 4,
               "emergency" : "assembly_point",
               "assembly_point:earthquake" : "yes"
               }
    }
,
    {
      "id"  : 86,
      "lat" : 46.268083,
      "lon" : 12.510228,
      "tags" : {
               "name" : "campo sportivo",
               "ref" : 5,
               "emergency" : "assembly_point",
               "assembly_point:earthquake" : "yes"
               }
    }
,
    {
      "id"  : 87,
      "lat" : 46.272,
      "lon" : 12.547956,
      "tags" : {
               "name" : "Lesis",
               "ref" : 9,
               "emergency" : "assembly_point",
               "assembly_point:earthquake" : "yes"
               }
    }
,
    {
      "id"  : 88,
      "lat" : 46.268353,
      "lon" : 12.504222,
      "tags" : {
               "name" : "ex Villaggio Vajont",
               "ref" : 10,
               "emergency" : "assembly_point",
               "assembly_point:earthquake" : "yes"
               }
    }
,
    {
      "id"  : 89,
      "lat" : 46.265894,
      "lon" : 12.475969,
      "tags" : {
               "name" : "Pinedo",
               "ref" : 15,
               "emergency" : "assembly_point",
               "assembly_point:earthquake" : "yes"
               }
    }
,
    {
      "id"  : 90,
      "lat" : 46.247142,
      "lon" : 12.471361,
      "tags" : {
               "name" : "Cellino di Sopra",
               "ref" : 18,
               "emergency" : "assembly_point",
               "assembly_point:earthquake" : "yes"
               }
    }
,
    {
      "id"  : 91,
      "lat" : 46.267903,
      "lon" : 12.513847,
      "tags" : {
               "name" : "Dolomiti",
               "ref" : 19,
               "emergency" : "assembly_point",
               "assembly_point:earthquake" : "yes"
               }
    }
,
    {
      "id"  : 288,
      "lat" : 45.968586,
      "lon" : 12.448239,
      "tags" : {
               "name" : "Piazza Martiri Garibaldini",
               "ref" : 1,
               "emergency" : "assembly_point",
               "assembly_point:earthquake" : "yes"
               }
    }
,
    {
      "id"  : 289,
      "lat" : 45.964431,
      "lon" : 12.435578,
      "tags" : {
               "name" : "Parcheggio scuole Stevenà",
               "ref" : 4,
               "emergency" : "assembly_point",
               "assembly_point:earthquake" : "yes"
               }
    }
,
    {
      "id"  : 290,
      "lat" : 45.983653,
      "lon" : 12.475364,
      "tags" : {
               "name" : "Parcheggio Chiesa",
               "ref" : 5,
               "emergency" : "assembly_point",
               "assembly_point:earthquake" : "yes"
               }
    }
,
    {
      "id"  : 291,
      "lat" : 45.993208,
      "lon" : 12.464739,
      "tags" : {
               "name" : "Parcheggio via Montello",
               "ref" : 8,
               "emergency" : "assembly_point",
               "assembly_point:earthquake" : "yes"
               }
    }
,
    {
      "id"  : 292,
      "lat" : 45.951692,
      "lon" : 12.447392,
      "tags" : {
               "name" : "Parcheggio via Lenisa a Fratta",
               "ref" : 9,
               "emergency" : "assembly_point",
               "assembly_point:earthquake" : "yes"
               }
    }
,
    {
      "id"  : 293,
      "lat" : 45.966006,
      "lon" : 12.448483,
      "tags" : {
               "name" : "Via Trieste",
               "ref" : 10,
               "emergency" : "assembly_point",
               "assembly_point:earthquake" : "yes"
               }
    }
,
    {
      "id"  : 294,
      "lat" : 45.99015,
      "lon" : 12.467553,
      "tags" : {
               "name" : "Via Carso",
               "ref" : 11,
               "emergency" : "assembly_point",
               "assembly_point:earthquake" : "yes"
               }
    }
,
    {
      "id"  : 295,
      "lat" : 45.991661,
      "lon" : 12.46165,
      "tags" : {
               "name" : "Parcheggio via XXV Aprile",
               "ref" : 12,
               "emergency" : "assembly_point",
               "assembly_point:earthquake" : "yes"
               }
    }
,
    {
      "id"  : 296,
      "lat" : 45.968592,
      "lon" : 12.453969,
      "tags" : {
               "name" : "via Giovanni Falcone",
               "ref" : 13,
               "emergency" : "assembly_point",
               "assembly_point:earthquake" : "yes"
               }
    }
,
    {
      "id"  : 297,
      "lat" : 45.967217,
      "lon" : 12.433556,
      "tags" : {
               "name" : "Piazza del Carmine",
               "ref" : 14,
               "emergency" : "assembly_point",
               "assembly_point:earthquake" : "yes"
               }
    }
,
    {
      "id"  : 317,
      "lat" : 45.847428,
      "lon" : 12.629628,
      "tags" : {
               "name" : "Campo Sportivo Comunale \"Sergio Pase\"",
               "ref" : 1,
               "emergency" : "assembly_point",
               "assembly_point:earthquake" : "yes"
               }
    }
,
    {
      "id"  : 318,
      "lat" : 45.889278,
      "lon" : 12.612458,
      "tags" : {
               "name" : "Campo Sportivo Comunale di Visinale",
               "ref" : 2,
               "emergency" : "assembly_point",
               "assembly_point:earthquake" : "yes"
               }
    }
,
    {
      "id"  : 319,
      "lat" : 45.845403,
      "lon" : 12.578253,
      "tags" : {
               "name" : "Parcheggio Chiesa Rivarotta",
               "ref" : 3,
               "emergency" : "assembly_point",
               "assembly_point:earthquake" : "yes"
               }
    }
,
    {
      "id"  : 320,
      "lat" : 45.874442,
      "lon" : 12.612231,
      "tags" : {
               "name" : "Parcheggio Chiesa Cecchini",
               "ref" : 4,
               "emergency" : "assembly_point",
               "assembly_point:earthquake" : "yes"
               }
    }
,
    {
      "id"  : 321,
      "lat" : 45.849831,
      "lon" : 12.626581,
      "tags" : {
               "name" : "Piazza Alcide De Gasperi",
               "ref" : 5,
               "emergency" : "assembly_point",
               "assembly_point:earthquake" : "yes"
               }
    }
,
    {
      "id"  : 322,
      "lat" : 45.851219,
      "lon" : 12.627244,
      "tags" : {
               "name" : "Parcheggio Comune",
               "ref" : 6,
               "emergency" : "assembly_point",
               "assembly_point:earthquake" : "yes"
               }
    }
,
    {
      "id"  : 323,
      "lat" : 45.846356,
      "lon" : 12.61525,
      "tags" : {
               "name" : "Area Parcheggio Rist. Da Giorgio",
               "ref" : 7,
               "emergency" : "assembly_point",
               "assembly_point:earthquake" : "yes"
               }
    }
,
    {
      "id"  : 324,
      "lat" : 45.872411,
      "lon" : 12.609883,
      "tags" : {
               "name" : "Parcheggio Scuole Cecchini",
               "ref" : 8,
               "emergency" : "assembly_point",
               "assembly_point:earthquake" : "yes"
               }
    }
,
    {
      "id"  : 325,
      "lat" : 45.901567,
      "lon" : 12.609425,
      "tags" : {
               "name" : "Parcheggio Visinale di Sopra",
               "ref" : 9,
               "emergency" : "assembly_point",
               "assembly_point:earthquake" : "yes"
               }
    }
,
    {
      "id"  : 326,
      "lat" : 45.868906,
      "lon" : 12.648708,
      "tags" : {
               "name" : "Lottizzazione Borgo Sant'Anna",
               "ref" : 10,
               "emergency" : "assembly_point",
               "assembly_point:earthquake" : "yes"
               }
    }
,
    {
      "id"  : 328,
      "lat" : 45.828419,
      "lon" : 12.589386,
      "tags" : {
               "name" : "Parcheggio Trattoria Quadrifoglio",
               "ref" : 12,
               "emergency" : "assembly_point",
               "assembly_point:earthquake" : "yes"
               }
    }
,
    {
      "id"  : 329,
      "lat" : 46.190769,
      "lon" : 12.565375,
      "tags" : {
               "name" : "Area d'attesa Riva Lago",
               "ref" : 1,
               "emergency" : "assembly_point",
               "assembly_point:earthquake" : "yes"
               }
    }
,
    {
      "id"  : 838,
      "lat" : 45.957356,
      "lon" : 12.63155,
      "tags" : {
               "name" : "Chiesa di S. Agnese",
               "ref" : 2,
               "emergency" : "assembly_point",
               "assembly_point:earthquake" : "yes"
               }
    }
,
    {
      "id"  : 839,
      "lat" : 45.9611,
      "lon" : 12.626892,
      "tags" : {
               "name" : "Plesso scolastico di Roraipiccolo",
               "ref" : 3,
               "emergency" : "assembly_point",
               "assembly_point:earthquake" : "yes"
               }
    }
,
    {
      "id"  : 840,
      "lat" : 45.957117,
      "lon" : 12.609442,
      "tags" : {
               "name" : "Plesso scolastico Porcia centro",
               "ref" : 4,
               "emergency" : "assembly_point",
               "assembly_point:earthquake" : "yes"
               }
    }
,
    {
      "id"  : 841,
      "lat" : 45.945078,
      "lon" : 12.604769,
      "tags" : {
               "name" : "Plesso scolastico Palse",
               "ref" : 5,
               "emergency" : "assembly_point",
               "assembly_point:earthquake" : "yes"
               }
    }
,
    {
      "id"  : 842,
      "lat" : 45.957639,
      "lon" : 12.587019,
      "tags" : {
               "name" : "Chiesa di Pieve",
               "ref" : 6,
               "emergency" : "assembly_point",
               "assembly_point:earthquake" : "yes"
               }
    }
,
    {
      "id"  : 843,
      "lat" : 45.974422,
      "lon" : 12.611828,
      "tags" : {
               "name" : "Asili S. Antonio",
               "ref" : 7,
               "emergency" : "assembly_point",
               "assembly_point:earthquake" : "yes"
               }
    }
,
    {
      "id"  : 844,
      "lat" : 45.955706,
      "lon" : 12.608064,
      "tags" : {
               "name" : "Centro socio-assistenziale",
               "ref" : 8,
               "emergency" : "assembly_point",
               "assembly_point:earthquake" : "yes"
               }
    }
,
    {
      "id"  : 845,
      "lat" : 45.954556,
      "lon" : 12.631181,
      "tags" : {
               "name" : "via Piave",
               "ref" : 9,
               "emergency" : "assembly_point",
               "assembly_point:earthquake" : "yes"
               }
    }
,
    {
      "id"  : 846,
      "lat" : 45.952256,
      "lon" : 12.641608,
      "tags" : {
               "name" : "Lago Burrida",
               "ref" : 10,
               "emergency" : "assembly_point",
               "assembly_point:earthquake" : "yes"
               }
    }
,
    {
      "id"  : 847,
      "lat" : 45.915031,
      "lon" : 12.618547,
      "tags" : {
               "name" : "Rondover",
               "ref" : 11,
               "emergency" : "assembly_point",
               "assembly_point:earthquake" : "yes"
               }
    }
,
    {
      "id"  : 848,
      "lat" : 45.922186,
      "lon" : 12.613825,
      "tags" : {
               "name" : "via Prata",
               "ref" : 12,
               "emergency" : "assembly_point",
               "assembly_point:earthquake" : "yes"
               }
    }
,
    {
      "id"  : 849,
      "lat" : 45.959019,
      "lon" : 12.62625,
      "tags" : {
               "name" : "Prato antistante villa Dolfin",
               "ref" : 13,
               "emergency" : "assembly_point",
               "assembly_point:earthquake" : "yes"
               }
    }
,
    {
      "id"  : 850,
      "lat" : 45.952689,
      "lon" : 12.618872,
      "tags" : {
               "name" : "via Meduna",
               "ref" : 14,
               "emergency" : "assembly_point",
               "assembly_point:earthquake" : "yes"
               }
    }
,
    {
      "id"  : 851,
      "lat" : 45.964922,
      "lon" : 12.606311,
      "tags" : {
               "name" : "Sant'Angelo",
               "ref" : 15,
               "emergency" : "assembly_point",
               "assembly_point:earthquake" : "yes"
               }
    }
,
    {
      "id"  : 852,
      "lat" : 45.956172,
      "lon" : 12.609358,
      "tags" : {
               "name" : "Area Giglio",
               "ref" : 16,
               "emergency" : "assembly_point",
               "assembly_point:earthquake" : "yes"
               }
    }
,
    {
      "id"  : 872,
      "lat" : 45.940292,
      "lon" : 12.647811,
      "tags" : {
               "name" : "Area verde Via Dogana",
               "ref" : 5,
               "emergency" : "assembly_point",
               "assembly_point:earthquake" : "yes"
               }
    }
,
    {
      "id"  : 879,
      "lat" : 45.96275,
      "lon" : 12.649389,
      "tags" : {
               "name" : "014 Area verde Via Cividale",
               "ref" : 14,
               "emergency" : "assembly_point",
               "assembly_point:earthquake" : "yes"
               }
    }
,
    {
      "id"  : 882,
      "lat" : 45.971619,
      "lon" : 12.646814,
      "tags" : {
               "name" : "Area verde Via Brigata Lupi di Toscana",
               "ref" : 17,
               "emergency" : "assembly_point",
               "assembly_point:earthquake" : "yes"
               }
    }
,
    {
      "id"  : 884,
      "lat" : 45.957036,
      "lon" : 12.648372,
      "tags" : {
               "name" : "019 Parcheggio stadio \"O. Bottecchia\"",
               "ref" : 19,
               "emergency" : "assembly_point",
               "assembly_point:earthquake" : "yes"
               }
    }
,
    {
      "id"  : 900,
      "lat" : 45.967042,
      "lon" : 12.638708,
      "tags" : {
               "name" : "Area verde Via Auronzo",
               "ref" : 41,
               "emergency" : "assembly_point",
               "assembly_point:earthquake" : "yes"
               }
    }
,
    {
      "id"  : 901,
      "lat" : 45.970439,
      "lon" : 12.640767,
      "tags" : {
               "name" : "Area verde Via Locatelli",
               "ref" : 42,
               "emergency" : "assembly_point",
               "assembly_point:earthquake" : "yes"
               }
    }
,
    {
      "id"  : 902,
      "lat" : 45.965083,
      "lon" : 12.630106,
      "tags" : {
               "name" : "Parcheggio Via Pitter",
               "ref" : 43,
               "emergency" : "assembly_point",
               "assembly_point:earthquake" : "yes"
               }
    }
,
    {
      "id"  : 903,
      "lat" : 45.964283,
      "lon" : 12.640881,
      "tags" : {
               "name" : "Area verde Via Casarsa",
               "ref" : 44,
               "emergency" : "assembly_point",
               "assembly_point:earthquake" : "yes"
               }
    }
,
    {
      "id"  : 904,
      "lat" : 45.97205,
      "lon" : 12.636481,
      "tags" : {
               "name" : "Allargamento carreggiata di Via Misurina",
               "ref" : 45,
               "emergency" : "assembly_point",
               "assembly_point:earthquake" : "yes"
               }
    }
,
    {
      "id"  : 905,
      "lat" : 45.969661,
      "lon" : 12.637514,
      "tags" : {
               "name" : "Parcheggio Via Bassano",
               "ref" : 46,
               "emergency" : "assembly_point",
               "assembly_point:earthquake" : "yes"
               }
    }
,
    {
      "id"  : 906,
      "lat" : 45.978678,
      "lon" : 12.642994,
      "tags" : {
               "name" : "Area verde privata Via Tiro a Segno",
               "ref" : 48,
               "emergency" : "assembly_point",
               "assembly_point:earthquake" : "yes"
               }
    }
,
    {
      "id"  : 908,
      "lat" : 45.958261,
      "lon" : 12.644117,
      "tags" : {
               "name" : "Parcheggio Via Latisana",
               "ref" : 51,
               "emergency" : "assembly_point",
               "assembly_point:earthquake" : "yes"
               }
    }
,
    {
      "id"  : 909,
      "lat" : 45.959064,
      "lon" : 12.647031,
      "tags" : {
               "name" : "Parcheggio Via San Vito",
               "ref" : 52,
               "emergency" : "assembly_point",
               "assembly_point:earthquake" : "yes"
               }
    }
,
    {
      "id"  : 910,
      "lat" : 45.959261,
      "lon" : 12.641942,
      "tags" : {
               "name" : "Parcheggio Via Tessitura",
               "ref" : 53,
               "emergency" : "assembly_point",
               "assembly_point:earthquake" : "yes"
               }
    }
,
    {
      "id"  : 913,
      "lat" : 45.971472,
      "lon" : 12.643961,
      "tags" : {
               "name" : "Parcheggio palestra \"F. Gallini\"",
               "ref" : 58,
               "emergency" : "assembly_point",
               "assembly_point:earthquake" : "yes"
               }
    }
,
    {
      "id"  : 914,
      "lat" : 45.966417,
      "lon" : 12.643894,
      "tags" : {
               "name" : "Area verde Viale Grigoletti",
               "ref" : 59,
               "emergency" : "assembly_point",
               "assembly_point:earthquake" : "yes"
               }
    }
,
    {
      "id"  : 915,
      "lat" : 45.932844,
      "lon" : 12.643022,
      "tags" : {
               "name" : "Parcheggio Via Chiesa di Vallenoncello",
               "ref" : 60,
               "emergency" : "assembly_point",
               "assembly_point:earthquake" : "yes"
               }
    }
,
    {
      "id"  : 916,
      "lat" : 45.928303,
      "lon" : 12.640014,
      "tags" : {
               "name" : "Parcheggio palestra di Vallenoncello",
               "ref" : 61,
               "emergency" : "assembly_point",
               "assembly_point:earthquake" : "yes"
               }
    }
,
    {
      "id"  : 919,
      "lat" : 45.992536,
      "lon" : 12.634389,
      "tags" : {
               "name" : "Parcheggio esterno Polo Tecnologico di Pordenone",
               "ref" : 64,
               "emergency" : "assembly_point",
               "assembly_point:earthquake" : "yes"
               }
    }
,
    {
      "id"  : 950,
      "lat" : 45.978567,
      "lon" : 12.564089,
      "tags" : {
               "name" : "Piazzale San Luca",
               "ref" : 1,
               "emergency" : "assembly_point",
               "assembly_point:earthquake" : "yes"
               }
    }
,
    {
      "id"  : 951,
      "lat" : 45.988711,
      "lon" : 12.603181,
      "tags" : {
               "name" : "ceolini via tasso",
               "ref" : 2,
               "emergency" : "assembly_point",
               "assembly_point:earthquake" : "yes"
               }
    }
,
    {
      "id"  : 952,
      "lat" : 45.99765,
      "lon" : 12.534044,
      "tags" : {
               "name" : "Ranzano Via Verdi",
               "ref" : 3,
               "emergency" : "assembly_point",
               "assembly_point:earthquake" : "yes"
               }
    }
,
    {
      "id"  : 953,
      "lat" : 45.977886,
      "lon" : 12.502353,
      "tags" : {
               "name" : "Nave Via Lirutti",
               "ref" : 4,
               "emergency" : "assembly_point",
               "assembly_point:earthquake" : "yes"
               }
    }
,
    {
      "id"  : 954,
      "lat" : 45.933394,
      "lon" : 12.538281,
      "tags" : {
               "name" : "Camolli Via Casut",
               "ref" : 5,
               "emergency" : "assembly_point",
               "assembly_point:earthquake" : "yes"
               }
    }
,
    {
      "id"  : 955,
      "lat" : 45.993578,
      "lon" : 12.55535,
      "tags" : {
               "name" : "Vigonovo Via Baracca - campo sportivo",
               "ref" : 6,
               "emergency" : "assembly_point",
               "assembly_point:earthquake" : "yes"
               }
    }
,
    {
      "id"  : 956,
      "lat" : 45.973831,
      "lon" : 12.589758,
      "tags" : {
               "name" : "Ronche via Percoto - Via Custoza",
               "ref" : 7,
               "emergency" : "assembly_point",
               "assembly_point:earthquake" : "yes"
               }
    }
,
    {
      "id"  : 957,
      "lat" : 45.9731,
      "lon" : 12.573122,
      "tags" : {
               "name" : "Fontanafredda Via Pastrengo - Via Don Piero della Toffola",
               "ref" : 8,
               "emergency" : "assembly_point",
               "assembly_point:earthquake" : "yes"
               }
    }
,
    {
      "id"  : 958,
      "lat" : 45.970331,
      "lon" : 12.572361,
      "tags" : {
               "name" : "Fontanafredda Via IV Novembre - Via dei Mille",
               "ref" : 9,
               "emergency" : "assembly_point",
               "assembly_point:earthquake" : "yes"
               }
    }
,
    {
      "id"  : 959,
      "lat" : 45.976972,
      "lon" : 12.510369,
      "tags" : {
               "name" : "Nave Via Casera Chions",
               "ref" : 11,
               "emergency" : "assembly_point",
               "assembly_point:earthquake" : "yes"
               }
    }
,
    {
      "id"  : 960,
      "lat" : 45.991969,
      "lon" : 12.498725,
      "tags" : {
               "name" : "Nave Via Valstort",
               "ref" : 12,
               "emergency" : "assembly_point",
               "assembly_point:earthquake" : "yes"
               }
    }
,
    {
      "id"  : 961,
      "lat" : 45.985167,
      "lon" : 12.510914,
      "tags" : {
               "name" : "Via Bodegan",
               "ref" : 13,
               "emergency" : "assembly_point",
               "assembly_point:earthquake" : "yes"
               }
    }
,
    {
      "id"  : 962,
      "lat" : 45.977961,
      "lon" : 12.525686,
      "tags" : {
               "name" : "La Croce - Via Brigata Osoppo",
               "ref" : 14,
               "emergency" : "assembly_point",
               "assembly_point:earthquake" : "yes"
               }
    }
,
    {
      "id"  : 963,
      "lat" : 45.998636,
      "lon" : 12.539217,
      "tags" : {
               "name" : "Ranzano - Parcheggio Via Crosetta",
               "ref" : 15,
               "emergency" : "assembly_point",
               "assembly_point:earthquake" : "yes"
               }
    }
,
    {
      "id"  : 964,
      "lat" : 45.993242,
      "lon" : 12.544481,
      "tags" : {
               "name" : "Via Veronese",
               "ref" : 16,
               "emergency" : "assembly_point",
               "assembly_point:earthquake" : "yes"
               }
    }
,
    {
      "id"  : 965,
      "lat" : 45.991228,
      "lon" : 12.540311,
      "tags" : {
               "name" : "Via G. Oberdan",
               "ref" : 17,
               "emergency" : "assembly_point",
               "assembly_point:earthquake" : "yes"
               }
    }
,
    {
      "id"  : 966,
      "lat" : 45.985361,
      "lon" : 12.554856,
      "tags" : {
               "name" : "Via Puccini",
               "ref" : 18,
               "emergency" : "assembly_point",
               "assembly_point:earthquake" : "yes"
               }
    }
,
    {
      "id"  : 967,
      "lat" : 45.978753,
      "lon" : 12.570417,
      "tags" : {
               "name" : "PEEP",
               "ref" : 19,
               "emergency" : "assembly_point",
               "assembly_point:earthquake" : "yes"
               }
    }
,
    {
      "id"  : 968,
      "lat" : 45.974897,
      "lon" : 12.561506,
      "tags" : {
               "name" : "Via Stellini - Via Del Macello",
               "ref" : 20,
               "emergency" : "assembly_point",
               "assembly_point:earthquake" : "yes"
               }
    }
,
    {
      "id"  : 969,
      "lat" : 45.972539,
      "lon" : 12.579667,
      "tags" : {
               "name" : "Parcheggio Via Del Cesiol",
               "ref" : 21,
               "emergency" : "assembly_point",
               "assembly_point:earthquake" : "yes"
               }
    }
,
    {
      "id"  : 970,
      "lat" : 45.986336,
      "lon" : 12.586625,
      "tags" : {
               "name" : "Via P. Zorutti",
               "ref" : 22,
               "emergency" : "assembly_point",
               "assembly_point:earthquake" : "yes"
               }
    }
,
    {
      "id"  : 971,
      "lat" : 45.9579,
      "lon" : 12.586594,
      "tags" : {
               "name" : "Via Pieve",
               "ref" : 23,
               "emergency" : "assembly_point",
               "assembly_point:earthquake" : "yes"
               }
    }
,
    {
      "id"  : 972,
      "lat" : 45.952747,
      "lon" : 12.536592,
      "tags" : {
               "name" : "Via Palmanova",
               "ref" : 24,
               "emergency" : "assembly_point",
               "assembly_point:earthquake" : "yes"
               }
    }
,
    {
      "id"  : 973,
      "lat" : 45.957219,
      "lon" : 12.562953,
      "tags" : {
               "name" : "Via Brugnera",
               "ref" : 25,
               "emergency" : "assembly_point",
               "assembly_point:earthquake" : "yes"
               }
    }
,
    {
      "id"  : 974,
      "lat" : 45.981933,
      "lon" : 12.569964,
      "tags" : {
               "name" : "Via Anello del Sole",
               "ref" : 29,
               "emergency" : "assembly_point",
               "assembly_point:earthquake" : "yes"
               }
    }
,
    {
      "id"  : 975,
      "lat" : 45.980969,
      "lon" : 12.568114,
      "tags" : {
               "name" : "Zona sportiva",
               "ref" : 30,
               "emergency" : "assembly_point",
               "assembly_point:earthquake" : "yes"
               }
    }
,
    {
      "id"  : 976,
      "lat" : 45.975558,
      "lon" : 12.572817,
      "tags" : {
               "name" : "Fontanafredda",
               "ref" : 31,
               "emergency" : "assembly_point",
               "assembly_point:earthquake" : "yes"
               }
    }
,
    {
      "id"  : 977,
      "lat" : 45.991219,
      "lon" : 12.547997,
      "tags" : {
               "name" : "Vigonovo 1",
               "ref" : 32,
               "emergency" : "assembly_point",
               "assembly_point:earthquake" : "yes"
               }
    }
,
    {
      "id"  : 978,
      "lat" : 45.988183,
      "lon" : 12.55445,
      "tags" : {
               "name" : "bivio via Leopardi - strada Col di riva",
               "ref" : 33,
               "emergency" : "assembly_point",
               "assembly_point:earthquake" : "yes"
               }
    }
,
    {
      "id"  : 979,
      "lat" : 45.973475,
      "lon" : 12.565622,
      "tags" : {
               "name" : "Laterale Via Grigoletti - ambulatorio",
               "ref" : 34,
               "emergency" : "assembly_point",
               "assembly_point:earthquake" : "yes"
               }
    }
,
    {
      "id"  : 980,
      "lat" : 45.975131,
      "lon" : 12.568189,
      "tags" : {
               "name" : "Via Del Parco",
               "ref" : 35,
               "emergency" : "assembly_point",
               "assembly_point:earthquake" : "yes"
               }
    }
,
    {
      "id"  : 981,
      "lat" : 45.978692,
      "lon" : 12.578428,
      "tags" : {
               "name" : "Via Carducci",
               "ref" : 36,
               "emergency" : "assembly_point",
               "assembly_point:earthquake" : "yes"
               }
    }
,
    {
      "id"  : 982,
      "lat" : 45.992158,
      "lon" : 12.571011,
      "tags" : {
               "name" : "Via Zorutti - Gortani",
               "ref" : 37,
               "emergency" : "assembly_point",
               "assembly_point:earthquake" : "yes"
               }
    }
,
    {
      "id"  : 983,
      "lat" : 46.008025,
      "lon" : 12.562939,
      "tags" : {
               "name" : "Via Bellini",
               "ref" : 38,
               "emergency" : "assembly_point",
               "assembly_point:earthquake" : "yes"
               }
    }
,
    {
      "id"  : 984,
      "lat" : 45.990514,
      "lon" : 12.552378,
      "tags" : {
               "name" : "Via del Var",
               "ref" : 39,
               "emergency" : "assembly_point",
               "assembly_point:earthquake" : "yes"
               }
    }
,
    {
      "id"  : 985,
      "lat" : 45.990583,
      "lon" : 12.600114,
      "tags" : {
               "name" : "Cesare Battisti",
               "ref" : 40,
               "emergency" : "assembly_point",
               "assembly_point:earthquake" : "yes"
               }
    }
,
    {
      "id"  : 1064,
      "lat" : 45.902831,
      "lon" : 12.586308,
      "tags" : {
               "name" : "Parcheggio Privato Via Maron",
               "ref" : 2,
               "emergency" : "assembly_point",
               "assembly_point:earthquake" : "yes"
               }
    }
,
    {
      "id"  : 1065,
      "lat" : 45.893031,
      "lon" : 12.589869,
      "tags" : {
               "name" : "Area Verde Sede ANA",
               "ref" : 3,
               "emergency" : "assembly_point",
               "assembly_point:earthquake" : "yes"
               }
    }
,
    {
      "id"  : 1066,
      "lat" : 45.893283,
      "lon" : 12.596339,
      "tags" : {
               "name" : "Piazza Wanda Meyer",
               "ref" : 4,
               "emergency" : "assembly_point",
               "assembly_point:earthquake" : "yes"
               }
    }
,
    {
      "id"  : 1067,
      "lat" : 45.886683,
      "lon" : 12.600628,
      "tags" : {
               "name" : "Parcheggio Chiesa San Giovanni",
               "ref" : 6,
               "emergency" : "assembly_point",
               "assembly_point:earthquake" : "yes"
               }
    }
,
    {
      "id"  : 1068,
      "lat" : 45.870106,
      "lon" : 12.592742,
      "tags" : {
               "name" : "Parcheggio Borgata Peressine",
               "ref" : 8,
               "emergency" : "assembly_point",
               "assembly_point:earthquake" : "yes"
               }
    }
,
    {
      "id"  : 1069,
      "lat" : 45.862158,
      "lon" : 12.57025,
      "tags" : {
               "name" : "Area Pro Loco Villanova",
               "ref" : 10,
               "emergency" : "assembly_point",
               "assembly_point:earthquake" : "yes"
               }
    }
,
    {
      "id"  : 1070,
      "lat" : 45.871633,
      "lon" : 12.564458,
      "tags" : {
               "name" : "Parcheggio BAR \"5 punto 0\"",
               "ref" : 12,
               "emergency" : "assembly_point",
               "assembly_point:earthquake" : "yes"
               }
    }
,
    {
      "id"  : 1071,
      "lat" : 45.843597,
      "lon" : 12.566006,
      "tags" : {
               "name" : "Parcheggio Piazza Mazzini",
               "ref" : 13,
               "emergency" : "assembly_point",
               "assembly_point:earthquake" : "yes"
               }
    }
,
    {
      "id"  : 1072,
      "lat" : 45.881408,
      "lon" : 12.56935,
      "tags" : {
               "name" : "Parcheggio Via Gorizia",
               "ref" : 14,
               "emergency" : "assembly_point",
               "assembly_point:earthquake" : "yes"
               }
    }
,
    {
      "id"  : 1073,
      "lat" : 45.895706,
      "lon" : 12.600081,
      "tags" : {
               "name" : "Parcheggio Poliambulatorio",
               "ref" : 15,
               "emergency" : "assembly_point",
               "assembly_point:earthquake" : "yes"
               }
    }
,
    {
      "id"  : 1074,
      "lat" : 45.864983,
      "lon" : 12.569142,
      "tags" : {
               "name" : "Parcheggio scuola elementare di Villanova",
               "ref" : 16,
               "emergency" : "assembly_point",
               "assembly_point:earthquake" : "yes"
               }
    }
,
    {
      "id"  : 1075,
      "lat" : 45.88165,
      "lon" : 12.584864,
      "tags" : {
               "name" : "Parcheggio Stadio comunale e PalaPrata",
               "ref" : 17,
               "emergency" : "assembly_point",
               "assembly_point:earthquake" : "yes"
               }
    }
,
    {
      "id"  : 1076,
      "lat" : 45.902814,
      "lon" : 12.600325,
      "tags" : {
               "name" : "Area verde - Pluriuso",
               "ref" : 18,
               "emergency" : "assembly_point",
               "assembly_point:earthquake" : "yes"
               }
    }
,
    {
      "id"  : 1227,
      "lat" : 46.071511,
      "lon" : 12.584725,
      "tags" : {
               "name" : "parcheggio campo sportivo",
               "ref" : 1,
               "emergency" : "assembly_point",
               "assembly_point:earthquake" : "yes"
               }
    }
,
    {
      "id"  : 1228,
      "lat" : 46.119483,
      "lon" : 12.613017,
      "tags" : {
               "name" : "piazzale ufficio postale Giais",
               "ref" : 2,
               "emergency" : "assembly_point",
               "assembly_point:earthquake" : "yes"
               }
    }
,
    {
      "id"  : 1229,
      "lat" : 46.094778,
      "lon" : 12.595142,
      "tags" : {
               "name" : "piazzale Marsure",
               "ref" : 3,
               "emergency" : "assembly_point",
               "assembly_point:earthquake" : "yes"
               }
    }
,
    {
      "id"  : 1230,
      "lat" : 46.071467,
      "lon" : 12.588875,
      "tags" : {
               "name" : "piazzale Trento",
               "ref" : 4,
               "emergency" : "assembly_point",
               "assembly_point:earthquake" : "yes"
               }
    }
,
    {
      "id"  : 1231,
      "lat" : 46.066428,
      "lon" : 12.589256,
      "tags" : {
               "name" : "piazzale coop",
               "ref" : 5,
               "emergency" : "assembly_point",
               "assembly_point:earthquake" : "yes"
               }
    }
,
    {
      "id"  : 1232,
      "lat" : 46.059489,
      "lon" : 12.574661,
      "tags" : {
               "name" : "parcheggio scuole Villotta",
               "ref" : 6,
               "emergency" : "assembly_point",
               "assembly_point:earthquake" : "yes"
               }
    }
,
    {
      "id"  : 1233,
      "lat" : 46.053528,
      "lon" : 12.564747,
      "tags" : {
               "name" : "parcheggi via Colmello Fabbro Castello",
               "ref" : 7,
               "emergency" : "assembly_point",
               "assembly_point:earthquake" : "yes"
               }
    }
,
    {
      "id"  : 1234,
      "lat" : 46.111439,
      "lon" : 12.524164,
      "tags" : {
               "name" : "piazzale Martiri della Libertà",
               "ref" : 8,
               "emergency" : "assembly_point",
               "assembly_point:earthquake" : "yes"
               }
    }
,
    {
      "id"  : 1236,
      "lat" : 46.098897,
      "lon" : 12.5913,
      "tags" : {
               "name" : "grave Marsure",
               "ref" : 10,
               "emergency" : "assembly_point",
               "assembly_point:earthquake" : "yes"
               }
    }
,
    {
      "id"  : 1237,
      "lat" : 46.116914,
      "lon" : 12.603864,
      "tags" : {
               "name" : "Santa Barbara",
               "ref" : 11,
               "emergency" : "assembly_point",
               "assembly_point:earthquake" : "yes"
               }
    }
,
    {
      "id"  : 1238,
      "lat" : 46.082975,
      "lon" : 12.5767,
      "tags" : {
               "name" : "Piazza Costa",
               "ref" : 12,
               "emergency" : "assembly_point",
               "assembly_point:earthquake" : "yes"
               }
    }
,
    {
      "id"  : 1239,
      "lat" : 46.085233,
      "lon" : 12.591308,
      "tags" : {
               "name" : "Baroz",
               "ref" : 13,
               "emergency" : "assembly_point",
               "assembly_point:earthquake" : "yes"
               }
    }
,
    {
      "id"  : 1276,
      "lat" : 46.424161,
      "lon" : 12.579414,
      "tags" : {
               "name" : "Piazza Centrale",
               "ref" : 1,
               "emergency" : "assembly_point",
               "assembly_point:earthquake" : "yes"
               }
    }
,
    {
      "id"  : 1277,
      "lat" : 46.419992,
      "lon" : 12.582633,
      "tags" : {
               "name" : "Parcheggio fronte stazione VVF",
               "ref" : 2,
               "emergency" : "assembly_point",
               "assembly_point:earthquake" : "yes"
               }
    }
,
    {
      "id"  : 1278,
      "lat" : 46.4122,
      "lon" : 12.589044,
      "tags" : {
               "name" : "Andrazza",
               "ref" : 3,
               "emergency" : "assembly_point",
               "assembly_point:earthquake" : "yes"
               }
    }
,
    {
      "id"  : 1472,
      "lat" : 45.968586,
      "lon" : 12.448239,
      "tags" : {
               "name" : "Piazza Martiri Garibaldini",
               "ref" : 1,
               "emergency" : "assembly_point",
               "assembly_point:earthquake" : "yes"
               }
    }
,
    {
      "id"  : 1473,
      "lat" : 45.964431,
      "lon" : 12.435578,
      "tags" : {
               "name" : "Parcheggio scuole Stevenà",
               "ref" : 4,
               "emergency" : "assembly_point",
               "assembly_point:earthquake" : "yes"
               }
    }
,
    {
      "id"  : 1474,
      "lat" : 45.983653,
      "lon" : 12.475364,
      "tags" : {
               "name" : "Parcheggio Chiesa",
               "ref" : 5,
               "emergency" : "assembly_point",
               "assembly_point:earthquake" : "yes"
               }
    }
,
    {
      "id"  : 1475,
      "lat" : 45.993208,
      "lon" : 12.464739,
      "tags" : {
               "name" : "Parcheggio via Montello",
               "ref" : 8,
               "emergency" : "assembly_point",
               "assembly_point:earthquake" : "yes"
               }
    }
,
    {
      "id"  : 1476,
      "lat" : 45.951692,
      "lon" : 12.447392,
      "tags" : {
               "name" : "Parcheggio via Lenisa a Fratta",
               "ref" : 9,
               "emergency" : "assembly_point",
               "assembly_point:earthquake" : "yes"
               }
    }
,
    {
      "id"  : 1477,
      "lat" : 45.966006,
      "lon" : 12.448483,
      "tags" : {
               "name" : "Via Trieste",
               "ref" : 10,
               "emergency" : "assembly_point",
               "assembly_point:earthquake" : "yes"
               }
    }
,
    {
      "id"  : 1478,
      "lat" : 45.99015,
      "lon" : 12.467553,
      "tags" : {
               "name" : "Via Carso",
               "ref" : 11,
               "emergency" : "assembly_point",
               "assembly_point:earthquake" : "yes"
               }
    }
,
    {
      "id"  : 1479,
      "lat" : 45.991661,
      "lon" : 12.46165,
      "tags" : {
               "name" : "Parcheggio via XXV Aprile",
               "ref" : 12,
               "emergency" : "assembly_point",
               "assembly_point:earthquake" : "yes"
               }
    }
,
    {
      "id"  : 1480,
      "lat" : 45.968592,
      "lon" : 12.453969,
      "tags" : {
               "name" : "via Giovanni Falcone",
               "ref" : 13,
               "emergency" : "assembly_point",
               "assembly_point:earthquake" : "yes"
               }
    }
,
    {
      "id"  : 1481,
      "lat" : 45.967217,
      "lon" : 12.433556,
      "tags" : {
               "name" : "Piazza del Carmine",
               "ref" : 14,
               "emergency" : "assembly_point",
               "assembly_point:earthquake" : "yes"
               }
    }
,
    {
      "id"  : 1606,
      "lat" : 46.016492,
      "lon" : 12.639033,
      "tags" : {
               "name" : "Sede Comunale",
               "ref" : 1,
               "emergency" : "assembly_point",
               "assembly_point:earthquake" : "yes"
               }
    }
,
    {
      "id"  : 1712,
      "lat" : 46.041728,
      "lon" : 12.533511,
      "tags" : {
               "name" : "Sede Protezione Civile Budoia",
               "ref" : 1,
               "emergency" : "assembly_point",
               "assembly_point:earthquake" : "yes"
               }
    }
,
    {
      "id"  : 1727,
      "lat" : 46.274464,
      "lon" : 12.370997,
      "tags" : {
               "name" : "Parcheggio Sciariàda",
               "ref" : 1,
               "emergency" : "assembly_point",
               "assembly_point:earthquake" : "yes"
               }
    }
,
    {
      "id"  : 1728,
      "lat" : 46.271622,
      "lon" : 12.334617,
      "tags" : {
               "name" : "Parcheggio via Motta",
               "ref" : 2,
               "emergency" : "assembly_point",
               "assembly_point:earthquake" : "yes"
               }
    }
,
    {
      "id"  : 1729,
      "lat" : 46.27895,
      "lon" : 12.382236,
      "tags" : {
               "name" : "Parcheggio San Martino",
               "ref" : 3,
               "emergency" : "assembly_point",
               "assembly_point:earthquake" : "yes"
               }
    }
,
    {
      "id"  : 1734,
      "lat" : 46.201853,
      "lon" : 12.612569,
      "tags" : {
               "name" : "AREA DI ATTESA LOC. PALLEVA",
               "ref" : 1,
               "emergency" : "assembly_point",
               "assembly_point:earthquake" : "yes"
               }
    }
,
    {
      "id"  : 1735,
      "lat" : 46.202614,
      "lon" : 12.600961,
      "tags" : {
               "name" : "VIA ALCHEDA, CORTILE LATTERIA",
               "ref" : 3,
               "emergency" : "assembly_point",
               "assembly_point:earthquake" : "yes"
               }
    }
,
    {
      "id"  : 1736,
      "lat" : 46.196211,
      "lon" : 12.630639,
      "tags" : {
               "name" : "VIA BOSPLANS,incrocio",
               "ref" : 4,
               "emergency" : "assembly_point",
               "assembly_point:earthquake" : "yes"
               }
    }
,
    {
      "id"  : 1737,
      "lat" : 46.199386,
      "lon" : 12.610644,
      "tags" : {
               "name" : "PARCHEGGIO CIMITERO, VIA N. SAURO",
               "ref" : 5,
               "emergency" : "assembly_point",
               "assembly_point:earthquake" : "yes"
               }
    }
,
    {
      "id"  : 1738,
      "lat" : 46.201253,
      "lon" : 12.616944,
      "tags" : {
               "name" : "CASA ANZIANI, VIA CESARE BATTISTI, 75",
               "ref" : 6,
               "emergency" : "assembly_point",
               "assembly_point:earthquake" : "yes"
               }
    }
,
    {
      "id"  : 1739,
      "lat" : 46.203228,
      "lon" : 12.624917,
      "tags" : {
               "name" : "CHIESETTA, VIA SOTT'ANZAS",
               "ref" : 7,
               "emergency" : "assembly_point",
               "assembly_point:earthquake" : "yes"
               }
    }
,
    {
      "id"  : 1740,
      "lat" : 46.197458,
      "lon" : 12.604611,
      "tags" : {
               "name" : "FONTANA, VIA PRAPIERO",
               "ref" : 8,
               "emergency" : "assembly_point",
               "assembly_point:earthquake" : "yes"
               }
    }
,
    {
      "id"  : 1797,
      "lat" : 45.965989,
      "lon" : 12.514464,
      "tags" : {
               "name" : "Parco Col Alto",
               "ref" : 1,
               "emergency" : "assembly_point",
               "assembly_point:earthquake" : "yes"
               }
    }
,
    {
      "id"  : 1798,
      "lat" : 45.963678,
      "lon" : 12.532253,
      "tags" : {
               "name" : "Via Venzone",
               "ref" : 2,
               "emergency" : "assembly_point",
               "assembly_point:earthquake" : "yes"
               }
    }
,
    {
      "id"  : 1799,
      "lat" : 45.956694,
      "lon" : 12.5022,
      "tags" : {
               "name" : "Area Monumento dei Caduti",
               "ref" : 4,
               "emergency" : "assembly_point",
               "assembly_point:earthquake" : "yes"
               }
    }
,
    {
      "id"  : 1800,
      "lat" : 45.948825,
      "lon" : 12.49795,
      "tags" : {
               "name" : "Piazza Libertà-Stazione FF.SS.",
               "ref" : 5,
               "emergency" : "assembly_point",
               "assembly_point:earthquake" : "yes"
               }
    }
,
    {
      "id"  : 1801,
      "lat" : 45.947742,
      "lon" : 12.51205,
      "tags" : {
               "name" : "Area via Abruzzi",
               "ref" : 7,
               "emergency" : "assembly_point",
               "assembly_point:earthquake" : "yes"
               }
    }
,
    {
      "id"  : 1802,
      "lat" : 45.911564,
      "lon" : 12.518519,
      "tags" : {
               "name" : "Parco Brenelli",
               "ref" : 8,
               "emergency" : "assembly_point",
               "assembly_point:earthquake" : "yes"
               }
    }
,
    {
      "id"  : 1803,
      "lat" : 45.925758,
      "lon" : 12.522606,
      "tags" : {
               "name" : "Piazzola Ecologica",
               "ref" : 10,
               "emergency" : "assembly_point",
               "assembly_point:earthquake" : "yes"
               }
    }
,
    {
      "id"  : 1804,
      "lat" : 45.954533,
      "lon" : 12.489347,
      "tags" : {
               "name" : "Parco via Po",
               "ref" : 11,
               "emergency" : "assembly_point",
               "assembly_point:earthquake" : "yes"
               }
    }
,
    {
      "id"  : 1805,
      "lat" : 45.957503,
      "lon" : 12.507708,
      "tags" : {
               "name" : "Parco Balliana",
               "ref" : 12,
               "emergency" : "assembly_point",
               "assembly_point:earthquake" : "yes"
               }
    }
,
    {
      "id"  : 1806,
      "lat" : 45.945419,
      "lon" : 12.502883,
      "tags" : {
               "name" : "Area esterna Cimitero S. Odorico",
               "ref" : 13,
               "emergency" : "assembly_point",
               "assembly_point:earthquake" : "yes"
               }
    }
,
    {
      "id"  : 1807,
      "lat" : 45.965386,
      "lon" : 12.526897,
      "tags" : {
               "name" : "Area Sosta Complesso Scolastico San Giovanni del Tempio",
               "ref" : 14,
               "emergency" : "assembly_point",
               "assembly_point:earthquake" : "yes"
               }
    }
,
    {
      "id"  : 1808,
      "lat" : 45.957169,
      "lon" : 12.501428,
      "tags" : {
               "name" : "Parcheggio Piccin",
               "ref" : 25,
               "emergency" : "assembly_point",
               "assembly_point:earthquake" : "yes"
               }
    }
,
    {
      "id"  : 1809,
      "lat" : 45.959164,
      "lon" : 12.517625,
      "tags" : {
               "name" : "Parcheggio campo sportivo XXV Aprile",
               "ref" : 26,
               "emergency" : "assembly_point",
               "assembly_point:earthquake" : "yes"
               }
    }
,
    {
      "id"  : 1810,
      "lat" : 45.966144,
      "lon" : 12.531156,
      "tags" : {
               "name" : "Area Via Latisana",
               "ref" : 28,
               "emergency" : "assembly_point",
               "assembly_point:earthquake" : "yes"
               }
    }
,
    {
      "id"  : 1811,
      "lat" : 45.964528,
      "lon" : 12.533806,
      "tags" : {
               "name" : "Area Via Pordenone",
               "ref" : 29,
               "emergency" : "assembly_point",
               "assembly_point:earthquake" : "yes"
               }
    }
,
    {
      "id"  : 1812,
      "lat" : 45.947078,
      "lon" : 12.510989,
      "tags" : {
               "name" : "Area via Val d'Aosta",
               "ref" : 31,
               "emergency" : "assembly_point",
               "assembly_point:earthquake" : "yes"
               }
    }
,
    {
      "id"  : 1813,
      "lat" : 45.956264,
      "lon" : 12.485617,
      "tags" : {
               "name" : "Area Via Gobetti",
               "ref" : 33,
               "emergency" : "assembly_point",
               "assembly_point:earthquake" : "yes"
               }
    }
,
    {
      "id"  : 1814,
      "lat" : 45.942358,
      "lon" : 12.516186,
      "tags" : {
               "name" : "Area Artigianale Geromina",
               "ref" : 35,
               "emergency" : "assembly_point",
               "assembly_point:earthquake" : "yes"
               }
    }
,
    {
      "id"  : 1815,
      "lat" : 45.930439,
      "lon" : 12.507992,
      "tags" : {
               "name" : "Area Via dei Tigli",
               "ref" : 36,
               "emergency" : "assembly_point",
               "assembly_point:earthquake" : "yes"
               }
    }
,
    {
      "id"  : 1816,
      "lat" : 45.961267,
      "lon" : 12.500772,
      "tags" : {
               "name" : "Area via Dall'Ava",
               "ref" : 38,
               "emergency" : "assembly_point",
               "assembly_point:earthquake" : "yes"
               }
    }
,
    {
      "id"  : 1817,
      "lat" : 45.931419,
      "lon" : 12.508311,
      "tags" : {
               "name" : "Area via Cavolano",
               "ref" : 46,
               "emergency" : "assembly_point",
               "assembly_point:earthquake" : "yes"
               }
    }
,
    {
      "id"  : 1818,
      "lat" : 45.949633,
      "lon" : 12.480036,
      "tags" : {
               "name" : "area via Vicenza",
               "ref" : 57,
               "emergency" : "assembly_point",
               "assembly_point:earthquake" : "yes"
               }
    }
,
    {
      "id"  : 1819,
      "lat" : 45.947503,
      "lon" : 12.474031,
      "tags" : {
               "name" : "Area esterna scuola infanzia Archimede",
               "ref" : 58,
               "emergency" : "assembly_point",
               "assembly_point:earthquake" : "yes"
               }
    }
,
    {
      "id"  : 1820,
      "lat" : 45.936561,
      "lon" : 12.475317,
      "tags" : {
               "name" : "Area Vistorta",
               "ref" : 60,
               "emergency" : "assembly_point",
               "assembly_point:earthquake" : "yes"
               }
    }
,
    {
      "id"  : 1821,
      "lat" : 45.961667,
      "lon" : 12.492558,
      "tags" : {
               "name" : "Area Via Ronche",
               "ref" : 61,
               "emergency" : "assembly_point",
               "assembly_point:earthquake" : "yes"
               }
    }
,
    {
      "id"  : 1822,
      "lat" : 45.935967,
      "lon" : 12.505142,
      "tags" : {
               "name" : "Area Schiavoi",
               "ref" : 62,
               "emergency" : "assembly_point",
               "assembly_point:earthquake" : "yes"
               }
    }
,
    {
      "id"  : 1823,
      "lat" : 45.951258,
      "lon" : 12.490481,
      "tags" : {
               "name" : "Area via Misurina",
               "ref" : 63,
               "emergency" : "assembly_point",
               "assembly_point:earthquake" : "yes"
               }
    }
,
    {
      "id"  : 1829,
      "lat" : 46.024331,
      "lon" : 12.512622,
      "tags" : {
               "name" : "Parcheggio Chiesa S. Giovanni",
               "ref" : 1,
               "emergency" : "assembly_point",
               "assembly_point:earthquake" : "yes"
               }
    }
,
    {
      "id"  : 1830,
      "lat" : 46.025944,
      "lon" : 12.509269,
      "tags" : {
               "name" : "Via Pordenone",
               "ref" : 2,
               "emergency" : "assembly_point",
               "assembly_point:earthquake" : "yes"
               }
    }
,
    {
      "id"  : 1831,
      "lat" : 46.035875,
      "lon" : 12.499881,
      "tags" : {
               "name" : "Scuole Medie Polcenigo",
               "ref" : 3,
               "emergency" : "assembly_point",
               "assembly_point:earthquake" : "yes"
               }
    }
,
    {
      "id"  : 1832,
      "lat" : 46.023036,
      "lon" : 12.479042,
      "tags" : {
               "name" : "Parcheggio Santissima",
               "ref" : 4,
               "emergency" : "assembly_point",
               "assembly_point:earthquake" : "yes"
               }
    }
,
    {
      "id"  : 1833,
      "lat" : 46.032119,
      "lon" : 12.49015,
      "tags" : {
               "name" : "Chiesa Coltura",
               "ref" : 5,
               "emergency" : "assembly_point",
               "assembly_point:earthquake" : "yes"
               }
    }
,
    {
      "id"  : 1834,
      "lat" : 46.046239,
      "lon" : 12.492378,
      "tags" : {
               "name" : "Mezzomonte",
               "ref" : 6,
               "emergency" : "assembly_point",
               "assembly_point:earthquake" : "yes"
               }
    }
,
    {
      "id"  : 1835,
      "lat" : 46.029014,
      "lon" : 12.498469,
      "tags" : {
               "name" : "Parcheggio San Rocco",
               "ref" : 7,
               "emergency" : "assembly_point",
               "assembly_point:earthquake" : "yes"
               }
    }
,
    {
      "id"  : 1836,
      "lat" : 46.013406,
      "lon" : 12.474783,
      "tags" : {
               "name" : "Località Valle",
               "ref" : 8,
               "emergency" : "assembly_point",
               "assembly_point:earthquake" : "yes"
               }
    }
,
    {
      "id"  : 1837,
      "lat" : 46.019403,
      "lon" : 12.511303,
      "tags" : {
               "name" : "Mobilificio MOMO",
               "ref" : 9,
               "emergency" : "assembly_point",
               "assembly_point:earthquake" : "yes"
               }
    }
,
    {
      "id"  : 1838,
      "lat" : 46.007847,
      "lon" : 12.507464,
      "tags" : {
               "name" : "Ristorante alla Fontaniva",
               "ref" : 10,
               "emergency" : "assembly_point",
               "assembly_point:earthquake" : "yes"
               }
    }
,
    {
      "id"  : 1839,
      "lat" : 46.029756,
      "lon" : 12.517769,
      "tags" : {
               "name" : "Parcheggio ex Bar da Betty",
               "ref" : 11,
               "emergency" : "assembly_point",
               "assembly_point:earthquake" : "yes"
               }
    }
,
    {
      "id"  : 1840,
      "lat" : 46.037225,
      "lon" : 12.496878,
      "tags" : {
               "name" : "Parcheggio Gorgazzo",
               "ref" : 12,
               "emergency" : "assembly_point",
               "assembly_point:earthquake" : "yes"
               }
    }
,
    {
      "id"  : 1841,
      "lat" : 46.038128,
      "lon" : 12.504356,
      "tags" : {
               "name" : "Via Mariet",
               "ref" : 13,
               "emergency" : "assembly_point",
               "assembly_point:earthquake" : "yes"
               }
    }
,
    {
      "id"  : 1842,
      "lat" : 46.032639,
      "lon" : 12.503639,
      "tags" : {
               "name" : "parco Via Polcenigo presso Bravin Rino",
               "ref" : 14,
               "emergency" : "assembly_point",
               "assembly_point:earthquake" : "yes"
               }
    }
,
    {
      "id"  : 1917,
      "lat" : 46.008911,
      "lon" : 12.618044,
      "tags" : {
               "name" : "Parco presso la Sede Municipale",
               "ref" : 3,
               "emergency" : "assembly_point",
               "assembly_point:earthquake" : "yes"
               }
    }
,
    {
      "id"  : 1918,
      "lat" : 46.0262,
      "lon" : 12.620689,
      "tags" : {
               "name" : "Parcheggio del Centro Commerciale",
               "ref" : 4,
               "emergency" : "assembly_point",
               "assembly_point:earthquake" : "yes"
               }
    }
,
    {
      "id"  : 1919,
      "lat" : 46.0178,
      "lon" : 12.620647,
      "tags" : {
               "name" : "Slargo laterale Via Mazzini",
               "ref" : 8,
               "emergency" : "assembly_point",
               "assembly_point:earthquake" : "yes"
               }
    }
,
    {
      "id"  : 1920,
      "lat" : 46.013211,
      "lon" : 12.614875,
      "tags" : {
               "name" : "Area verde di via C. Colombo",
               "ref" : 9,
               "emergency" : "assembly_point",
               "assembly_point:earthquake" : "yes"
               }
    }
,
    {
      "id"  : 1921,
      "lat" : 46.014961,
      "lon" : 12.609731,
      "tags" : {
               "name" : "Area verde di via Marinelli",
               "ref" : 10,
               "emergency" : "assembly_point",
               "assembly_point:earthquake" : "yes"
               }
    }
,
    {
      "id"  : 1922,
      "lat" : 46.010822,
      "lon" : 12.622153,
      "tags" : {
               "name" : "Parcheggio cimitero",
               "ref" : 11,
               "emergency" : "assembly_point",
               "assembly_point:earthquake" : "yes"
               }
    }
,
    {
      "id"  : 1923,
      "lat" : 46.007575,
      "lon" : 12.615383,
      "tags" : {
               "name" : "Area verde Via Carducci di fronte alla palestra comunale",
               "ref" : 12,
               "emergency" : "assembly_point",
               "assembly_point:earthquake" : "yes"
               }
    }
,
    {
      "id"  : 1924,
      "lat" : 46.007969,
      "lon" : 12.621022,
      "tags" : {
               "name" : "Parcheggio Giovanni Falcone - pressi Sede Associazioni",
               "ref" : 13,
               "emergency" : "assembly_point",
               "assembly_point:earthquake" : "yes"
               }
    }
,
    {
      "id"  : 1925,
      "lat" : 46.004733,
      "lon" : 12.613442,
      "tags" : {
               "name" : "Parco La Radice Quadrata di Via Gortanutti",
               "ref" : 14,
               "emergency" : "assembly_point",
               "assembly_point:earthquake" : "yes"
               }
    }
,
    {
      "id"  : 1926,
      "lat" : 46.001142,
      "lon" : 12.612761,
      "tags" : {
               "name" : "Area verde di Via Grigoletti",
               "ref" : 16,
               "emergency" : "assembly_point",
               "assembly_point:earthquake" : "yes"
               }
    }
,
    {
      "id"  : 1927,
      "lat" : 45.999436,
      "lon" : 12.614592,
      "tags" : {
               "name" : "Area verde di via San Sebastiano",
               "ref" : 17,
               "emergency" : "assembly_point",
               "assembly_point:earthquake" : "yes"
               }
    }
,
    {
      "id"  : 1928,
      "lat" : 45.986944,
      "lon" : 12.618264,
      "tags" : {
               "name" : "Area verde e parcheggio delal Zona Artigianale",
               "ref" : 18,
               "emergency" : "assembly_point",
               "assembly_point:earthquake" : "yes"
               }
    }
,
    {
      "id"  : 1929,
      "lat" : 45.983908,
      "lon" : 12.613983,
      "tags" : {
               "name" : "Area verde della Zona Industriale",
               "ref" : 19,
               "emergency" : "assembly_point",
               "assembly_point:earthquake" : "yes"
               }
    }
,
    {
      "id"  : 1930,
      "lat" : 45.978458,
      "lon" : 12.618325,
      "tags" : {
               "name" : "Parcheggi in località Borgonuovo",
               "ref" : 20,
               "emergency" : "assembly_point",
               "assembly_point:earthquake" : "yes"
               }
    }
,
    {
      "id"  : 1931,
      "lat" : 46.003778,
      "lon" : 12.614083,
      "tags" : {
               "name" : "Parcheggio in via Viola",
               "ref" : 21,
               "emergency" : "assembly_point",
               "assembly_point:earthquake" : "yes"
               }
    }
,
    {
      "id"  : 1932,
      "lat" : 45.999719,
      "lon" : 12.606281,
      "tags" : {
               "name" : "Parcheggio e area verede fronte ingresso ditta Cave dell'Agnese",
               "ref" : 22,
               "emergency" : "assembly_point",
               "assembly_point:earthquake" : "yes"
               }
    }
,
    {
      "id"  : 1933,
      "lat" : 46.012511,
      "lon" : 12.591472,
      "tags" : {
               "name" : "Area Verde lungo SP 31 in prossimità della rotonda in località Tornielli",
               "ref" : 23,
               "emergency" : "assembly_point",
               "assembly_point:earthquake" : "yes"
               }
    }
,
    {
      "id"  : 1934,
      "lat" : 46.008789,
      "lon" : 12.611489,
      "tags" : {
               "name" : "Area verde di via Del Gelso",
               "ref" : 24,
               "emergency" : "assembly_point",
               "assembly_point:earthquake" : "yes"
               }
    }
,
    {
      "id"  : 1935,
      "lat" : 46.006228,
      "lon" : 12.619425,
      "tags" : {
               "name" : "Parcheggio di via 3 Ottobre",
               "ref" : 25,
               "emergency" : "assembly_point",
               "assembly_point:earthquake" : "yes"
               }
    }
,
    {
      "id"  : 1936,
      "lat" : 46.002947,
      "lon" : 12.6181,
      "tags" : {
               "name" : "Parcheggio \"P. Borsellino\" di via XX Settembre",
               "ref" : 26,
               "emergency" : "assembly_point",
               "assembly_point:earthquake" : "yes"
               }
    }
,
    {
      "id"  : 2024,
      "lat" : 46.150536,
      "lon" : 12.648675,
      "tags" : {
               "name" : "PIAZZA IV NOVEMBRE",
               "ref" : 8,
               "emergency" : "assembly_point",
               "assembly_point:earthquake" : "yes"
               }
    }
,
    {
      "id"  : 2026,
      "lat" : 46.153372,
      "lon" : 12.64495,
      "tags" : {
               "name" : "BORGO ALZETTA",
               "ref" : 10,
               "emergency" : "assembly_point",
               "assembly_point:earthquake" : "yes"
               }
    }
,
    {
      "id"  : 2027,
      "lat" : 46.143772,
      "lon" : 12.636594,
      "tags" : {
               "name" : "CENTRO COMUNITARIO MALNISIO",
               "ref" : 13,
               "emergency" : "assembly_point",
               "assembly_point:earthquake" : "yes"
               }
    }
,
    {
      "id"  : 2039,
      "lat" : 46.139261,
      "lon" : 12.632086,
      "tags" : {
               "name" : "VIA GIAIS",
               "ref" : 31,
               "emergency" : "assembly_point",
               "assembly_point:earthquake" : "yes"
               }
    }
,
    {
      "id"  : 2040,
      "lat" : 46.143231,
      "lon" : 12.630944,
      "tags" : {
               "name" : "LARGO GARIBALDI - MALNISIO -",
               "ref" : 32,
               "emergency" : "assembly_point",
               "assembly_point:earthquake" : "yes"
               }
    }
,
    {
      "id"  : 2042,
      "lat" : 46.143464,
      "lon" : 12.633369,
      "tags" : {
               "name" : "Incrocio Via Alessandro Volta e Via Alfieri",
               "ref" : 42,
               "emergency" : "assembly_point",
               "assembly_point:earthquake" : "yes"
               }
    }
,
    {
      "id"  : 2044,
      "lat" : 46.145883,
      "lon" : 12.642281,
      "tags" : {
               "name" : "PARCHEGGIO CIMITERO - MALNISIO -",
               "ref" : 47,
               "emergency" : "assembly_point",
               "assembly_point:earthquake" : "yes"
               }
    }
,
    {
      "id"  : 2045,
      "lat" : 46.139728,
      "lon" : 12.637194,
      "tags" : {
               "name" : "VIA MACOR-ALDO MORO",
               "ref" : 49,
               "emergency" : "assembly_point",
               "assembly_point:earthquake" : "yes"
               }
    }
,
    {
      "id"  : 2096,
      "lat" : 46.286678,
      "lon" : 12.439542,
      "tags" : {
               "name" : "PARCHEGGIO ANTISTANTE CASERMA CARABINIERI",
               "ref" : 3,
               "emergency" : "assembly_point",
               "assembly_point:earthquake" : "yes"
               }
    }
,
    {
      "id"  : 2097,
      "lat" : 46.284717,
      "lon" : 12.446017,
      "tags" : {
               "name" : "SAN FLORIANO",
               "ref" : 4,
               "emergency" : "assembly_point",
               "assembly_point:earthquake" : "yes"
               }
    }
,
    {
      "id"  : 2098,
      "lat" : 46.286489,
      "lon" : 12.434889,
      "tags" : {
               "name" : "STRADA PRADA",
               "ref" : 5,
               "emergency" : "assembly_point",
               "assembly_point:earthquake" : "yes"
               }
    }
,
    {
      "id"  : 2099,
      "lat" : 46.29075,
      "lon" : 12.437894,
      "tags" : {
               "name" : "CASA PER ANZIANI",
               "ref" : 6,
               "emergency" : "assembly_point",
               "assembly_point:earthquake" : "yes"
               }
    }
]